{"generatedFrom":"dataset/openstreetmap/export.geojson","generatedAt":"2026-05-24T17:16:26.763Z","count":4883,"items":[{"id":"way/1217974887","kind":"street","name":"Abbazia di Chiaravalle","street":"Abbazia di Chiaravalle","houseNumber":"","normalized":"abbazia di chiaravalle","lon":9.2360804,"lat":45.4169476},{"id":"way/1207124212","kind":"street","name":"Abbiategrasso M2","street":"Abbiategrasso M2","houseNumber":"","normalized":"abbiategrasso m2","lon":9.1779105,"lat":45.4294861},{"id":"way/359830539","kind":"street","name":"Accesso fornitori","street":"Accesso fornitori","houseNumber":"","normalized":"accesso fornitori","lon":9.246797,"lat":45.4800535},{"id":"way/653978035","kind":"street","name":"Accesso settore ospiti verde (Milan AC)","street":"Accesso settore ospiti verde (Milan AC)","houseNumber":"","normalized":"accesso settore ospiti verde milan ac","lon":9.1211647,"lat":45.4786919},{"id":"way/4524877","kind":"street","name":"Alzaia Naviglio Grande","street":"Alzaia Naviglio Grande","houseNumber":"","normalized":"alzaia naviglio grande","lon":9.146274,"lat":45.4458925},{"id":"way/4604795","kind":"street","name":"Alzaia Naviglio Pavese","street":"Alzaia Naviglio Pavese","houseNumber":"","normalized":"alzaia naviglio pavese","lon":9.1768601,"lat":45.4474905},{"id":"way/1088751246","kind":"street","name":"Alzaia Naviglio Pavese,60","street":"Alzaia Naviglio Pavese,60","houseNumber":"","normalized":"alzaia naviglio pavese 60","lon":9.1760642,"lat":45.4448511},{"id":"way/125835755","kind":"street","name":"Anello di Gratosoglio","street":"Anello di Gratosoglio","houseNumber":"","normalized":"anello di gratosoglio","lon":9.1742769,"lat":45.4212743},{"id":"way/288357146","kind":"street","name":"Arcimboldi Ateneo Nuovo","street":"Arcimboldi Ateneo Nuovo","houseNumber":"","normalized":"arcimboldi ateneo nuovo","lon":9.2137963,"lat":45.5159076},{"id":"way/252061703","kind":"street","name":"Arco della Pace","street":"Arco della Pace","houseNumber":"","normalized":"arco della pace","lon":9.1714244,"lat":45.4764015},{"id":"way/1244545219","kind":"street","name":"Argonne M4","street":"Argonne M4","houseNumber":"","normalized":"argonne m4","lon":9.2309839,"lat":45.4677353},{"id":"way/1476519689","kind":"street","name":"Autoparcheggio \"Campo dei Fiori\"","street":"Autoparcheggio \"Campo dei Fiori\"","houseNumber":"","normalized":"autoparcheggio campo dei fiori","lon":9.1543201,"lat":45.4980048},{"id":"way/4836542","kind":"street","name":"Autostrada dei Giovi - Serravalle","street":"Autostrada dei Giovi - Serravalle","houseNumber":"","normalized":"autostrada dei giovi serravalle","lon":9.1674052,"lat":45.4325607},{"id":"way/4073524","kind":"street","name":"Autostrada dei Laghi","street":"Autostrada dei Laghi","houseNumber":"","normalized":"autostrada dei laghi","lon":9.1104523,"lat":45.5211632},{"id":"way/30336748","kind":"street","name":"Autostrada Serenissima","street":"Autostrada Serenissima","houseNumber":"","normalized":"autostrada serenissima","lon":9.0998612,"lat":45.5147974},{"id":"way/4875761","kind":"street","name":"Bastioni di Porta Nuova","street":"Bastioni di Porta Nuova","houseNumber":"","normalized":"bastioni di porta nuova","lon":9.1892665,"lat":45.4801358},{"id":"way/8311379","kind":"street","name":"Bastioni di Porta Venezia","street":"Bastioni di Porta Venezia","houseNumber":"","normalized":"bastioni di porta venezia","lon":9.2042443,"lat":45.4745913},{"id":"way/4875782","kind":"street","name":"Bastioni di Porta Volta","street":"Bastioni di Porta Volta","houseNumber":"","normalized":"bastioni di porta volta","lon":9.1822173,"lat":45.4813355},{"id":"way/1047824733","kind":"street","name":"Bicocca M5","street":"Bicocca M5","houseNumber":"","normalized":"bicocca m5","lon":9.2057452,"lat":45.5148913},{"id":"way/136293241","kind":"street","name":"Bignami M5","street":"Bignami M5","houseNumber":"","normalized":"bignami m5","lon":9.2119353,"lat":45.5258274},{"id":"way/1080531320","kind":"street","name":"bolivar m4","street":"bolivar m4","houseNumber":"","normalized":"bolivar m4","lon":9.1524997,"lat":45.4555801},{"id":"way/255647384","kind":"street","name":"Bonola M1","street":"Bonola M1","houseNumber":"","normalized":"bonola m1","lon":9.110797,"lat":45.4964295},{"id":"way/1128434548","kind":"street","name":"Bovisa FN (Politecnico)","street":"Bovisa FN (Politecnico)","houseNumber":"","normalized":"bovisa fn politecnico","lon":9.1597439,"lat":45.5025993},{"id":"way/1128464294","kind":"street","name":"Bovisa (Politecnico)","street":"Bovisa (Politecnico)","houseNumber":"","normalized":"bovisa politecnico","lon":9.1611479,"lat":45.5030987},{"id":"way/1079418778","kind":"street","name":"Brenta M3","street":"Brenta M3","houseNumber":"","normalized":"brenta m3","lon":9.2188184,"lat":45.4427936},{"id":"way/1212980490","kind":"street","name":"Bruzzano FM","street":"Bruzzano FM","houseNumber":"","normalized":"bruzzano fm","lon":9.1723755,"lat":45.5318431},{"id":"way/1212978152","kind":"street","name":"Bruzzano FN","street":"Bruzzano FN","houseNumber":"","normalized":"bruzzano fn","lon":9.1713081,"lat":45.5290765},{"id":"way/83279396","kind":"street","name":"Business Park","street":"Business Park","houseNumber":"","normalized":"business park","lon":9.1782804,"lat":45.4093248},{"id":"way/1079967628","kind":"street","name":"Cadorna FN M1 M2","street":"Cadorna FN M1 M2","houseNumber":"","normalized":"cadorna fn m1 m2","lon":9.176104,"lat":45.4679442},{"id":"way/1072703999","kind":"street","name":"Cadorna M1 M2","street":"Cadorna M1 M2","houseNumber":"","normalized":"cadorna m1 m2","lon":9.1767206,"lat":45.4674434},{"id":"way/245953114","kind":"street","name":"Caiazzo M2","street":"Caiazzo M2","houseNumber":"","normalized":"caiazzo m2","lon":9.2095548,"lat":45.4852056},{"id":"way/1072707056","kind":"street","name":"Cairoli m1","street":"Cairoli m1","houseNumber":"","normalized":"cairoli m1","lon":9.1835466,"lat":45.4696677},{"id":"way/1007681509","kind":"street","name":"Cambio Linea 6","street":"Cambio Linea 6","houseNumber":"","normalized":"cambio linea 6","lon":9.2755302,"lat":45.4731007},{"id":"way/284324860","kind":"street","name":"Cargo 8-10","street":"Cargo 8-10","houseNumber":"","normalized":"cargo 8 10","lon":9.0989968,"lat":45.522867},{"id":"way/1074793331","kind":"street","name":"Cascina Gobba","street":"Cascina Gobba","houseNumber":"","normalized":"cascina gobba","lon":9.2606167,"lat":45.5112889},{"id":"way/1055938498","kind":"street","name":"Cascina Gobba M2","street":"Cascina Gobba M2","houseNumber":"","normalized":"cascina gobba m2","lon":9.2605483,"lat":45.5113495},{"id":"way/342755847","kind":"street","name":"Cascina Merlata","street":"Cascina Merlata","houseNumber":"","normalized":"cascina merlata","lon":9.1069989,"lat":45.5104757},{"id":"way/9822203","kind":"street","name":"Cavalcavia Adriano Bacula","street":"Cavalcavia Adriano Bacula","houseNumber":"","normalized":"cavalcavia adriano bacula","lon":9.1631229,"lat":45.4975485},{"id":"way/19786618","kind":"street","name":"Cavalcavia Buccari","street":"Cavalcavia Buccari","houseNumber":"","normalized":"cavalcavia buccari","lon":9.2397561,"lat":45.4697184},{"id":"way/4861390","kind":"street","name":"Cavalcavia Cascina Gobba","street":"Cavalcavia Cascina Gobba","houseNumber":"","normalized":"cavalcavia cascina gobba","lon":9.2663843,"lat":45.5131266},{"id":"way/4013166","kind":"street","name":"Cavalcavia del Ghisallo","street":"Cavalcavia del Ghisallo","houseNumber":"","normalized":"cavalcavia del ghisallo","lon":9.1307465,"lat":45.4952231},{"id":"way/7980899","kind":"street","name":"Cavalcavia Don Lorenzo Milani","street":"Cavalcavia Don Lorenzo Milani","houseNumber":"","normalized":"cavalcavia don lorenzo milani","lon":9.1439235,"lat":45.4488953},{"id":"way/4969361","kind":"street","name":"Cavalcavia Eugenio Bussa","street":"Cavalcavia Eugenio Bussa","houseNumber":"","normalized":"cavalcavia eugenio bussa","lon":9.1879672,"lat":45.4856526},{"id":"way/28778245","kind":"street","name":"Cavalcavia Giovanni Schiavoni","street":"Cavalcavia Giovanni Schiavoni","houseNumber":"","normalized":"cavalcavia giovanni schiavoni","lon":9.1749692,"lat":45.4374553},{"id":"way/24046834","kind":"street","name":"Cavalcavia Giuseppe Luraghi","street":"Cavalcavia Giuseppe Luraghi","houseNumber":"","normalized":"cavalcavia giuseppe luraghi","lon":9.0886359,"lat":45.4554153},{"id":"way/26784631","kind":"street","name":"Cavalcavia Pontinia","street":"Cavalcavia Pontinia","houseNumber":"","normalized":"cavalcavia pontinia","lon":9.2447156,"lat":45.429329},{"id":"way/48426029","kind":"street","name":"Cavalcavia Renato Serra","street":"Cavalcavia Renato Serra","houseNumber":"","normalized":"cavalcavia renato serra","lon":9.1436766,"lat":45.4845508},{"id":"way/979667867","kind":"street","name":"Cenisio M5","street":"Cenisio M5","houseNumber":"","normalized":"cenisio m5","lon":9.1731304,"lat":45.4874883},{"id":"way/354331591","kind":"street","name":"Children Park","street":"Children Park","houseNumber":"","normalized":"children park","lon":9.102006,"lat":45.5221571},{"id":"way/1209102892","kind":"street","name":"Ciccotti Affori M3","street":"Ciccotti Affori M3","houseNumber":"","normalized":"ciccotti affori m3","lon":9.1660316,"lat":45.5222519},{"id":"way/183707501","kind":"street","name":"Ciclabile Pero - Molino Dorino","street":"Ciclabile Pero - Molino Dorino","houseNumber":"","normalized":"ciclabile pero molino dorino","lon":9.0928563,"lat":45.5061604},{"id":"way/840219015","kind":"street","name":"Ciclovia Staffette Partigiane","street":"Ciclovia Staffette Partigiane","houseNumber":"","normalized":"ciclovia staffette partigiane","lon":9.1627144,"lat":45.4828847},{"id":"way/1217976058","kind":"street","name":"Cimitero di Chiaravalle","street":"Cimitero di Chiaravalle","houseNumber":"","normalized":"cimitero di chiaravalle","lon":9.229325,"lat":45.412334},{"id":"way/1204912318","kind":"street","name":"Cimitero di Greco","street":"Cimitero di Greco","houseNumber":"","normalized":"cimitero di greco","lon":9.2120895,"lat":45.5042714},{"id":"way/1252119380","kind":"street","name":"Collegamento M2-M4","street":"Collegamento M2-M4","houseNumber":"","normalized":"collegamento m2 m4","lon":9.1733132,"lat":45.4622367},{"id":"way/270792834","kind":"street","name":"Collegamento Via Barzaghi - Via Stephenson","street":"Collegamento Via Barzaghi - Via Stephenson","houseNumber":"","normalized":"collegamento via barzaghi via stephenson","lon":9.1170493,"lat":45.5103184},{"id":"way/57402983","kind":"street","name":"Collegamento Via Eritrea - Via Stephenson","street":"Collegamento Via Eritrea - Via Stephenson","houseNumber":"","normalized":"collegamento via eritrea via stephenson","lon":9.1281276,"lat":45.510793},{"id":"way/1190563406","kind":"street","name":"Comasina M3","street":"Comasina M3","houseNumber":"","normalized":"comasina m3","lon":9.1634792,"lat":45.5282534},{"id":"way/1027012088","kind":"street","name":"Cordusio M1","street":"Cordusio M1","houseNumber":"","normalized":"cordusio m1","lon":9.1857464,"lat":45.465665},{"id":"way/31310572","kind":"street","name":"Corso Buenos Aires","street":"Corso Buenos Aires","houseNumber":"","normalized":"corso buenos aires","lon":9.2161269,"lat":45.4855924},{"id":"way/136992459","kind":"street","name":"Corso Colombo - Piazzale Cantore","street":"Corso Colombo - Piazzale Cantore","houseNumber":"","normalized":"corso colombo piazzale cantore","lon":9.1721893,"lat":45.4548963},{"id":"way/23331764","kind":"street","name":"Corso Como","street":"Corso Como","houseNumber":"","normalized":"corso como","lon":9.1871731,"lat":45.4817094},{"id":"way/1177963406","kind":"street","name":"Corso Concordia","street":"Corso Concordia","houseNumber":"","normalized":"corso concordia","lon":9.2081688,"lat":45.4680248},{"id":"way/136992455","kind":"street","name":"Corso Cristoforo Colombo","street":"Corso Cristoforo Colombo","houseNumber":"","normalized":"corso cristoforo colombo","lon":9.1721895,"lat":45.4549067},{"id":"way/23330531","kind":"street","name":"Corso di Porta Nuova","street":"Corso di Porta Nuova","houseNumber":"","normalized":"corso di porta nuova","lon":9.1911945,"lat":45.4729845},{"id":"way/183874239","kind":"street","name":"Corso di Porta Romana","street":"Corso di Porta Romana","houseNumber":"","normalized":"corso di porta romana","lon":9.1923624,"lat":45.4582447},{"id":"way/1027033827","kind":"street","name":"Corso di Porta Romana - Via Santa Sofia","street":"Corso di Porta Romana - Via Santa Sofia","houseNumber":"","normalized":"corso di porta romana via santa sofia","lon":9.1929838,"lat":45.4578105},{"id":"way/4857477","kind":"street","name":"Corso di Porta Ticinese","street":"Corso di Porta Ticinese","houseNumber":"","normalized":"corso di porta ticinese","lon":9.1809813,"lat":45.4579616},{"id":"way/186674258","kind":"street","name":"Corso di Porta Vigentina","street":"Corso di Porta Vigentina","houseNumber":"","normalized":"corso di porta vigentina","lon":9.1959952,"lat":45.4541062},{"id":"way/4018790","kind":"street","name":"Corso di Porta Vittoria","street":"Corso di Porta Vittoria","houseNumber":"","normalized":"corso di porta vittoria","lon":9.1981258,"lat":45.4623338},{"id":"way/355514651","kind":"street","name":"Corso di Porta Vittoria (Camera del Lavoro)","street":"Corso di Porta Vittoria (Camera del Lavoro)","houseNumber":"","normalized":"corso di porta vittoria camera del lavoro","lon":9.2034551,"lat":45.462336},{"id":"way/1078773689","kind":"street","name":"Corso di Porta Vittoria Largo Augusto","street":"Corso di Porta Vittoria Largo Augusto","houseNumber":"","normalized":"corso di porta vittoria largo augusto","lon":9.1989087,"lat":45.4621727},{"id":"way/1184208312","kind":"street","name":"Corso Europa","street":"Corso Europa","houseNumber":"","normalized":"corso europa","lon":9.1971085,"lat":45.4649315},{"id":"way/183217902","kind":"street","name":"Corso Genova","street":"Corso Genova","houseNumber":"","normalized":"corso genova","lon":9.1772411,"lat":45.4583978},{"id":"way/24319228","kind":"street","name":"Corso Giacomo Matteotti","street":"Corso Giacomo Matteotti","houseNumber":"","normalized":"corso giacomo matteotti","lon":9.1944739,"lat":45.4669533},{"id":"way/33548019","kind":"street","name":"Corso Giuseppe Garibaldi","street":"Corso Giuseppe Garibaldi","houseNumber":"","normalized":"corso giuseppe garibaldi","lon":9.1845111,"lat":45.4775148},{"id":"way/7980212","kind":"street","name":"Corso Indipendenza","street":"Corso Indipendenza","houseNumber":"","normalized":"corso indipendenza","lon":9.2123107,"lat":45.4676134},{"id":"way/1080237451","kind":"street","name":"Corso Indipendenza - Via Bronzetti","street":"Corso Indipendenza - Via Bronzetti","houseNumber":"","normalized":"corso indipendenza via bronzetti","lon":9.2148783,"lat":45.4671108},{"id":"way/7980539","kind":"street","name":"Corso Italia","street":"Corso Italia","houseNumber":"","normalized":"corso italia","lon":9.1870331,"lat":45.4544657},{"id":"way/1064287995","kind":"street","name":"Corso Italia - Missori M3","street":"Corso Italia - Missori M3","houseNumber":"","normalized":"corso italia missori m3","lon":9.1880026,"lat":45.4596562},{"id":"way/1079983808","kind":"street","name":"Corso Italia - Via Lusardi","street":"Corso Italia - Via Lusardi","houseNumber":"","normalized":"corso italia via lusardi","lon":9.1869958,"lat":45.454148},{"id":"way/1073025529","kind":"street","name":"Corso Italia - Via Santa Sofia","street":"Corso Italia - Via Santa Sofia","houseNumber":"","normalized":"corso italia via santa sofia","lon":9.1874383,"lat":45.4567791},{"id":"way/24450641","kind":"street","name":"Corso Lodi","street":"Corso Lodi","houseNumber":"","normalized":"corso lodi","lon":9.2177222,"lat":45.4431749},{"id":"way/1079414369","kind":"street","name":"Corso Lodi Via Brembo","street":"Corso Lodi Via Brembo","houseNumber":"","normalized":"corso lodi via brembo","lon":9.2128389,"lat":45.4455407},{"id":"way/1079409868","kind":"street","name":"corso Lodi via Friuli","street":"corso Lodi via Friuli","houseNumber":"","normalized":"corso lodi via friuli","lon":9.2082701,"lat":45.4485269},{"id":"way/1079414371","kind":"street","name":"Corso Lodi Via Scrivia","street":"Corso Lodi Via Scrivia","houseNumber":"","normalized":"corso lodi via scrivia","lon":9.2153559,"lat":45.4444704},{"id":"way/268443552","kind":"street","name":"Corso Luigi Manusardi","street":"Corso Luigi Manusardi","houseNumber":"","normalized":"corso luigi manusardi","lon":9.1789542,"lat":45.4514712},{"id":"way/25687444","kind":"street","name":"Corso Magenta","street":"Corso Magenta","houseNumber":"","normalized":"corso magenta","lon":9.1676956,"lat":45.465807},{"id":"way/4018782","kind":"street","name":"Corso Monforte","street":"Corso Monforte","houseNumber":"","normalized":"corso monforte","lon":9.2055848,"lat":45.467722},{"id":"way/25092146","kind":"street","name":"Corso Plebisciti","street":"Corso Plebisciti","houseNumber":"","normalized":"corso plebisciti","lon":9.2197401,"lat":45.4679903},{"id":"way/1078757052","kind":"street","name":"Corso porta Romana via Orti","street":"Corso porta Romana via Orti","houseNumber":"","normalized":"corso porta romana via orti","lon":9.1992909,"lat":45.4538862},{"id":"way/1069212623","kind":"street","name":"Corso Porta Vigentina","street":"Corso Porta Vigentina","houseNumber":"","normalized":"corso porta vigentina","lon":9.1962228,"lat":45.4535154},{"id":"way/183213444","kind":"street","name":"Corso San Gottardo","street":"Corso San Gottardo","houseNumber":"","normalized":"corso san gottardo","lon":9.1796195,"lat":45.448101},{"id":"way/1079432109","kind":"street","name":"Corso San Gottardo Via Lagrange","street":"Corso San Gottardo Via Lagrange","houseNumber":"","normalized":"corso san gottardo via lagrange","lon":9.1797536,"lat":45.4486335},{"id":"way/4497547","kind":"street","name":"Corso Sempione","street":"Corso Sempione","houseNumber":"","normalized":"corso sempione","lon":9.1636053,"lat":45.4819034},{"id":"way/250293103","kind":"street","name":"Corso Sempione Via Arona","street":"Corso Sempione Via Arona","houseNumber":"","normalized":"corso sempione via arona","lon":9.1611265,"lat":45.4839359},{"id":"way/497436210","kind":"street","name":"Corso Sempione Via Canova","street":"Corso Sempione Via Canova","houseNumber":"","normalized":"corso sempione via canova","lon":9.1685735,"lat":45.4782825},{"id":"way/252061519","kind":"street","name":"Corso Sempione Via E. Filiberto","street":"Corso Sempione Via E. Filiberto","houseNumber":"","normalized":"corso sempione via e filiberto","lon":9.1583898,"lat":45.4861692},{"id":"way/252061518","kind":"street","name":"Corso Sempione Via Procaccini","street":"Corso Sempione Via Procaccini","houseNumber":"","normalized":"corso sempione via procaccini","lon":9.1661016,"lat":45.4801655},{"id":"way/497436205","kind":"street","name":"Corso Sempione Via Villasanta","street":"Corso Sempione Via Villasanta","houseNumber":"","normalized":"corso sempione via villasanta","lon":9.1675259,"lat":45.4790767},{"id":"way/8465658","kind":"street","name":"Corso Venezia","street":"Corso Venezia","houseNumber":"","normalized":"corso venezia","lon":9.2048302,"lat":45.4741967},{"id":"way/27912012","kind":"street","name":"Corso Ventidue Marzo","street":"Corso Ventidue Marzo","houseNumber":"","normalized":"corso ventidue marzo","lon":9.208195,"lat":45.4621967},{"id":"way/4012098","kind":"street","name":"Corso Vercelli","street":"Corso Vercelli","houseNumber":"","normalized":"corso vercelli","lon":9.1647752,"lat":45.4661773},{"id":"way/529616415","kind":"street","name":"Corso Vittorio Emanuele Secondo","street":"Corso Vittorio Emanuele Secondo","houseNumber":"","normalized":"corso vittorio emanuele secondo","lon":9.1952821,"lat":45.4654042},{"id":"way/1337263954","kind":"street","name":"Corte Nord","street":"Corte Nord","houseNumber":"","normalized":"corte nord","lon":9.2116992,"lat":45.4513016},{"id":"way/1337263936","kind":"street","name":"Corte Sud","street":"Corte Sud","houseNumber":"","normalized":"corte sud","lon":9.2117366,"lat":45.4510902},{"id":"way/1317124490","kind":"street","name":"Cortile del Filarete","street":"Cortile del Filarete","houseNumber":"","normalized":"cortile del filarete","lon":9.1945624,"lat":45.4601468},{"id":"way/27595251","kind":"street","name":"Cortile del Palazzo Reale","street":"Cortile del Palazzo Reale","houseNumber":"","normalized":"cortile del palazzo reale","lon":9.1913655,"lat":45.4628253},{"id":"way/1080028403","kind":"street","name":"Corvetto M3","street":"Corvetto M3","houseNumber":"","normalized":"corvetto m3","lon":9.2229384,"lat":45.4404513},{"id":"way/1027033824","kind":"street","name":"Crocetta M3","street":"Crocetta M3","houseNumber":"","normalized":"crocetta m3","lon":9.1966041,"lat":45.4561727},{"id":"way/1026978610","kind":"street","name":"De Angeli M1","street":"De Angeli M1","houseNumber":"","normalized":"de angeli m1","lon":9.1497017,"lat":45.4671397},{"id":"way/252061517","kind":"street","name":"Domodossola FN M5","street":"Domodossola FN M5","houseNumber":"","normalized":"domodossola fn m5","lon":9.1635756,"lat":45.482089},{"id":"way/1027024994","kind":"street","name":"Duomo M1 M3","street":"Duomo M1 M3","houseNumber":"","normalized":"duomo m1 m3","lon":9.188446,"lat":45.462953},{"id":"way/297663250","kind":"street","name":"Expo Milano 2015","street":"Expo Milano 2015","houseNumber":"","normalized":"expo milano 2015","lon":9.0995147,"lat":45.5179929},{"id":"way/337386709","kind":"street","name":"Expo Milano 2015 Circular Road","street":"Expo Milano 2015 Circular Road","houseNumber":"","normalized":"expo milano 2015 circular road","lon":9.1050467,"lat":45.5213704},{"id":"way/971635608","kind":"street","name":"Famagosta M2","street":"Famagosta M2","houseNumber":"","normalized":"famagosta m2","lon":9.1680529,"lat":45.4373451},{"id":"way/1154283604","kind":"street","name":"Fermata N° 12723","street":"Fermata N° 12723","houseNumber":"","normalized":"fermata n 12723","lon":9.2415394,"lat":45.4827736},{"id":"way/1208716550","kind":"street","name":"Fermata n 13607 V.le Sarca via La Farina","street":"Fermata n 13607 V.le Sarca via La Farina","houseNumber":"","normalized":"fermata n 13607 v le sarca via la farina","lon":9.2083181,"lat":45.515228},{"id":"way/1206875278","kind":"street","name":"Fermata Via Rombon Via Pini","street":"Fermata Via Rombon Via Pini","houseNumber":"","normalized":"fermata via rombon via pini","lon":9.241159,"lat":45.4860659},{"id":"way/10516168","kind":"street","name":"Foro Buonaparte","street":"Foro Buonaparte","houseNumber":"","normalized":"foro buonaparte","lon":9.1817631,"lat":45.468022},{"id":"way/497381145","kind":"street","name":"Foro Buonaparte Via Ricasoli","street":"Foro Buonaparte Via Ricasoli","houseNumber":"","normalized":"foro buonaparte via ricasoli","lon":9.1791491,"lat":45.4675995},{"id":"way/95737285","kind":"street","name":"Galleria Buenos Aires","street":"Galleria Buenos Aires","houseNumber":"","normalized":"galleria buenos aires","lon":9.210034,"lat":45.4788892},{"id":"way/165419179","kind":"street","name":"Galleria Ciro Fontana","street":"Galleria Ciro Fontana","houseNumber":"","normalized":"galleria ciro fontana","lon":9.1914681,"lat":45.4656366},{"id":"way/37335879","kind":"street","name":"Galleria De Cristoforis","street":"Galleria De Cristoforis","houseNumber":"","normalized":"galleria de cristoforis","lon":9.1950862,"lat":45.4653414},{"id":"way/23227597","kind":"street","name":"Galleria del Corso","street":"Galleria del Corso","houseNumber":"","normalized":"galleria del corso","lon":9.1950892,"lat":45.4652756},{"id":"way/174934949","kind":"street","name":"Galleria del Toro","street":"Galleria del Toro","houseNumber":"","normalized":"galleria del toro","lon":9.197176,"lat":45.4664153},{"id":"way/206763875","kind":"street","name":"Galleria dell'Artigianato","street":"Galleria dell'Artigianato","houseNumber":"","normalized":"galleria dell artigianato","lon":9.1875557,"lat":45.4650903},{"id":"way/498089811","kind":"street","name":"Galleria delle botteghe","street":"Galleria delle botteghe","houseNumber":"","normalized":"galleria delle botteghe","lon":9.2641193,"lat":45.5057248},{"id":"way/759113040","kind":"street","name":"Galleria di Corso Vercelli","street":"Galleria di Corso Vercelli","houseNumber":"","normalized":"galleria di corso vercelli","lon":9.1615601,"lat":45.4657403},{"id":"way/157558665","kind":"street","name":"Galleria Giuseppe Borella","street":"Galleria Giuseppe Borella","houseNumber":"","normalized":"galleria giuseppe borella","lon":9.1751537,"lat":45.4638095},{"id":"way/329736674","kind":"street","name":"Galleria Manzoni","street":"Galleria Manzoni","houseNumber":"","normalized":"galleria manzoni","lon":9.1943726,"lat":45.4710612},{"id":"way/245232312","kind":"street","name":"Galleria Meravigli","street":"Galleria Meravigli","houseNumber":"","normalized":"galleria meravigli","lon":9.1843027,"lat":45.4655571},{"id":"way/525731408","kind":"street","name":"Galleria Merlata","street":"Galleria Merlata","houseNumber":"","normalized":"galleria merlata","lon":9.096158,"lat":45.508571},{"id":"way/137975785","kind":"street","name":"Galleria Passarella","street":"Galleria Passarella","houseNumber":"","normalized":"galleria passarella","lon":9.1969316,"lat":45.4658761},{"id":"way/232352858","kind":"street","name":"Galleria Pattari","street":"Galleria Pattari","houseNumber":"","normalized":"galleria pattari","lon":9.1929056,"lat":45.4645354},{"id":"way/437511249","kind":"street","name":"Galleria privata Strasburgo","street":"Galleria privata Strasburgo","houseNumber":"","normalized":"galleria privata strasburgo","lon":9.1977244,"lat":45.4650019},{"id":"way/651039292","kind":"street","name":"Galleria Sala dei Longobardi","street":"Galleria Sala dei Longobardi","houseNumber":"","normalized":"galleria sala dei longobardi","lon":9.1927895,"lat":45.4661505},{"id":"way/232703091","kind":"street","name":"Galleria San Babila","street":"Galleria San Babila","houseNumber":"","normalized":"galleria san babila","lon":9.1981873,"lat":45.4663357},{"id":"way/174930311","kind":"street","name":"Galleria San Carlo","street":"Galleria San Carlo","houseNumber":"","normalized":"galleria san carlo","lon":9.1965636,"lat":45.4657816},{"id":"way/23227480","kind":"street","name":"Galleria Santa Radegonda","street":"Galleria Santa Radegonda","houseNumber":"","normalized":"galleria santa radegonda","lon":9.1923529,"lat":45.4655153},{"id":"way/222857317","kind":"street","name":"Galleria Unione","street":"Galleria Unione","houseNumber":"","normalized":"galleria unione","lon":9.1880004,"lat":45.4616345},{"id":"way/163757321","kind":"street","name":"Galleria Vittorio Emanuele II","street":"Galleria Vittorio Emanuele II","houseNumber":"","normalized":"galleria vittorio emanuele ii","lon":9.1900417,"lat":45.4665582},{"id":"way/163757278","kind":"street","name":"Galleria Vittorio Emanuele Secondo","street":"Galleria Vittorio Emanuele Secondo","houseNumber":"","normalized":"galleria vittorio emanuele secondo","lon":9.1900275,"lat":45.4647182},{"id":"way/48295694","kind":"street","name":"Giardino Angela e Luciana Giussani","street":"Giardino Angela e Luciana Giussani","houseNumber":"","normalized":"giardino angela e luciana giussani","lon":9.2207265,"lat":45.4617761},{"id":"way/369790377","kind":"street","name":"Giardino Aristide Calderini","street":"Giardino Aristide Calderini","houseNumber":"","normalized":"giardino aristide calderini","lon":9.1777633,"lat":45.4649324},{"id":"way/432330549","kind":"street","name":"Giardino degli Artisti","street":"Giardino degli Artisti","houseNumber":"","normalized":"giardino degli artisti","lon":9.2129712,"lat":45.4912314},{"id":"way/340072849","kind":"street","name":"Giardino delle Culture","street":"Giardino delle Culture","houseNumber":"","normalized":"giardino delle culture","lon":9.2110325,"lat":45.4611527},{"id":"way/423214605","kind":"street","name":"Giardino Maria Teresa Agnesi","street":"Giardino Maria Teresa Agnesi","houseNumber":"","normalized":"giardino maria teresa agnesi","lon":9.2017097,"lat":45.451175},{"id":"way/1040765333","kind":"street","name":"Giardino Mariangela Melato","street":"Giardino Mariangela Melato","houseNumber":"","normalized":"giardino mariangela melato","lon":9.189817,"lat":45.475326},{"id":"way/138302220","kind":"street","name":"Giovanni da Cermenate","street":"Giovanni da Cermenate","houseNumber":"","normalized":"giovanni da cermenate","lon":9.1833955,"lat":45.4376006},{"id":"way/1205709933","kind":"street","name":"Gorla M1","street":"Gorla M1","houseNumber":"","normalized":"gorla m1","lon":9.2231647,"lat":45.5070133},{"id":"way/338297361","kind":"street","name":"Ingresso Est Roserio","street":"Ingresso Est Roserio","houseNumber":"","normalized":"ingresso est roserio","lon":9.0961302,"lat":45.5189312},{"id":"way/1093144839","kind":"street","name":"Istria M5","street":"Istria M5","houseNumber":"","normalized":"istria m5","lon":9.1988614,"lat":45.5019433},{"id":"way/381698751","kind":"street","name":"La Galleria della Moda","street":"La Galleria della Moda","houseNumber":"","normalized":"la galleria della moda","lon":9.2026727,"lat":45.4821765},{"id":"way/387315481","kind":"street","name":"Lampo • Scalo Farini","street":"Lampo • Scalo Farini","houseNumber":"","normalized":"lampo scalo farini","lon":9.1799393,"lat":45.4910922},{"id":"way/403685524","kind":"street","name":"Lanza M2","street":"Lanza M2","houseNumber":"","normalized":"lanza m2","lon":9.1820149,"lat":45.4720595},{"id":"way/189723089","kind":"street","name":"Largo 11 Settembre 2001","street":"Largo 11 Settembre 2001","houseNumber":"","normalized":"largo 11 settembre 2001","lon":9.2043729,"lat":45.4676655},{"id":"way/375909333","kind":"street","name":"Largo Africa","street":"Largo Africa","houseNumber":"","normalized":"largo africa","lon":9.1557666,"lat":45.4753779},{"id":"way/71513602","kind":"street","name":"Largo Agostiniani dell'Osservanza","street":"Largo Agostiniani dell'Osservanza","houseNumber":"","normalized":"largo agostiniani dell osservanza","lon":9.2005725,"lat":45.4232995},{"id":"way/428920776","kind":"street","name":"Largo ai Caduti Milanesi per la Patria","street":"Largo ai Caduti Milanesi per la Patria","houseNumber":"","normalized":"largo ai caduti milanesi per la patria","lon":9.1760334,"lat":45.4634229},{"id":"way/44145479","kind":"street","name":"Largo Albe Steiner","street":"Largo Albe Steiner","houseNumber":"","normalized":"largo albe steiner","lon":9.1837031,"lat":45.4391354},{"id":"way/4012042","kind":"street","name":"Largo Alberto Camus","street":"Largo Alberto Camus","houseNumber":"","normalized":"largo alberto camus","lon":9.1600542,"lat":45.4739556},{"id":"way/6816160","kind":"street","name":"Largo Aldo De Benedetti","street":"Largo Aldo De Benedetti","houseNumber":"","normalized":"largo aldo de benedetti","lon":9.1944061,"lat":45.4860638},{"id":"way/44815356","kind":"street","name":"Largo Anselmo Guerrieri Gonzaga","street":"Largo Anselmo Guerrieri Gonzaga","houseNumber":"","normalized":"largo anselmo guerrieri gonzaga","lon":9.2505216,"lat":45.4449624},{"id":"way/689001181","kind":"street","name":"Largo Antonio Balestra","street":"Largo Antonio Balestra","houseNumber":"","normalized":"largo antonio balestra","lon":9.1418361,"lat":45.4480573},{"id":"way/39327200","kind":"street","name":"Largo Antonio Ghiringhelli","street":"Largo Antonio Ghiringhelli","houseNumber":"","normalized":"largo antonio ghiringhelli","lon":9.1893401,"lat":45.4671297},{"id":"way/142651267","kind":"street","name":"Largo Antonio Greppi","street":"Largo Antonio Greppi","houseNumber":"","normalized":"largo antonio greppi","lon":9.1826122,"lat":45.4718201},{"id":"way/1410580158","kind":"street","name":"Largo Arturo Toscanini","street":"Largo Arturo Toscanini","houseNumber":"","normalized":"largo arturo toscanini","lon":9.1979966,"lat":45.4657819},{"id":"way/250549193","kind":"street","name":"Largo Ascari","street":"Largo Ascari","houseNumber":"","normalized":"largo ascari","lon":9.1671876,"lat":45.4435217},{"id":"way/1280569520","kind":"street","name":"Largo Augusto","street":"Largo Augusto","houseNumber":"","normalized":"largo augusto","lon":9.197809,"lat":45.4635027},{"id":"way/1155983397","kind":"street","name":"Largo Boccioni","street":"Largo Boccioni","houseNumber":"","normalized":"largo boccioni","lon":9.1283845,"lat":45.5114771},{"id":"way/53869266","kind":"street","name":"Largo Bortolo Belotti","street":"Largo Bortolo Belotti","houseNumber":"","normalized":"largo bortolo belotti","lon":9.1877684,"lat":45.4664441},{"id":"way/4019492","kind":"street","name":"Largo Brasilia","street":"Largo Brasilia","houseNumber":"","normalized":"largo brasilia","lon":9.1362755,"lat":45.4517495},{"id":"way/10516167","kind":"street","name":"Largo Cairoli","street":"Largo Cairoli","houseNumber":"","normalized":"largo cairoli","lon":9.1826289,"lat":45.468361},{"id":"way/135682024","kind":"street","name":"Largo Camillo Caccia Dominioni","street":"Largo Camillo Caccia Dominioni","houseNumber":"","normalized":"largo camillo caccia dominioni","lon":9.1960378,"lat":45.4378206},{"id":"way/48675252","kind":"street","name":"Largo Carlo Alberto dalla Chiesa","street":"Largo Carlo Alberto dalla Chiesa","houseNumber":"","normalized":"largo carlo alberto dalla chiesa","lon":9.1402083,"lat":45.4638102},{"id":"way/4017613","kind":"street","name":"Largo Carlo Emilio Gadda","street":"Largo Carlo Emilio Gadda","houseNumber":"","normalized":"largo carlo emilio gadda","lon":9.1699843,"lat":45.4809684},{"id":"way/28388203","kind":"street","name":"Largo Cavalieri di Malta","street":"Largo Cavalieri di Malta","houseNumber":"","normalized":"largo cavalieri di malta","lon":9.1378245,"lat":45.4538581},{"id":"way/7980362","kind":"street","name":"Largo Celestino Usuelli","street":"Largo Celestino Usuelli","houseNumber":"","normalized":"largo celestino usuelli","lon":9.2196867,"lat":45.4779634},{"id":"way/83605155","kind":"street","name":"Largo Claudio Abbado","street":"Largo Claudio Abbado","houseNumber":"","normalized":"largo claudio abbado","lon":9.1883665,"lat":45.4656811},{"id":"way/4998790","kind":"street","name":"Largo Claudio Treves","street":"Largo Claudio Treves","houseNumber":"","normalized":"largo claudio treves","lon":9.1868307,"lat":45.4753845},{"id":"way/23228961","kind":"street","name":"Largo Convitto Fanciulli Gracili e Orfani di Guerra Principessa Piemonte","street":"Largo Convitto Fanciulli Gracili e Orfani di Guerra Principessa Piemonte","houseNumber":"","normalized":"largo convitto fanciulli gracili e orfani di guerra principessa piemonte","lon":9.1826018,"lat":45.5170087},{"id":"way/23276697","kind":"street","name":"Largo Corsia dei Servi","street":"Largo Corsia dei Servi","houseNumber":"","normalized":"largo corsia dei servi","lon":9.1965923,"lat":45.4645535},{"id":"way/685672153","kind":"street","name":"Largo D'Ancona","street":"Largo D'Ancona","houseNumber":"","normalized":"largo d ancona","lon":9.1753315,"lat":45.4658569},{"id":"way/618591059","kind":"street","name":"Largo dei Bersaglieri","street":"Largo dei Bersaglieri","houseNumber":"","normalized":"largo dei bersaglieri","lon":9.1956464,"lat":45.4636896},{"id":"way/7980815","kind":"street","name":"Largo dei Gelsomini","street":"Largo dei Gelsomini","houseNumber":"","normalized":"largo dei gelsomini","lon":9.135893,"lat":45.4495651},{"id":"way/186674260","kind":"street","name":"Largo della Crocetta","street":"Largo della Crocetta","houseNumber":"","normalized":"largo della crocetta","lon":9.1954606,"lat":45.4562316},{"id":"way/4017877","kind":"street","name":"Largo delle culture","street":"Largo delle culture","houseNumber":"","normalized":"largo delle culture","lon":9.1644981,"lat":45.4524062},{"id":"way/22718216","kind":"street","name":"Largo Desio","street":"Largo Desio","houseNumber":"","normalized":"largo desio","lon":9.196605,"lat":45.5035118},{"id":"way/4011862","kind":"street","name":"Largo Domodossola","street":"Largo Domodossola","houseNumber":"","normalized":"largo domodossola","lon":9.1601503,"lat":45.4801391},{"id":"way/273814482","kind":"street","name":"Largo Don Saturnino Villa","street":"Largo Don Saturnino Villa","houseNumber":"","normalized":"largo don saturnino villa","lon":9.0700034,"lat":45.4508545},{"id":"way/23817036","kind":"street","name":"Largo Enrico Agostino Griffini","street":"Largo Enrico Agostino Griffini","houseNumber":"","normalized":"largo enrico agostino griffini","lon":9.2289149,"lat":45.4669975},{"id":"way/310931533","kind":"street","name":"Largo Enrico Bigatti","street":"Largo Enrico Bigatti","houseNumber":"","normalized":"largo enrico bigatti","lon":9.2483615,"lat":45.5157405},{"id":"way/163863024","kind":"street","name":"Largo Enrico Mattei","street":"Largo Enrico Mattei","houseNumber":"","normalized":"largo enrico mattei","lon":9.2222135,"lat":45.5142057},{"id":"way/23729251","kind":"street","name":"Largo Enzo Tortora","street":"Largo Enzo Tortora","houseNumber":"","normalized":"largo enzo tortora","lon":9.1781667,"lat":45.4656831},{"id":"way/23118984","kind":"street","name":"Largo Fatima","street":"Largo Fatima","houseNumber":"","normalized":"largo fatima","lon":9.1308451,"lat":45.4491885},{"id":"way/43144507","kind":"street","name":"Largo Fra' Agostino Gemelli","street":"Largo Fra' Agostino Gemelli","houseNumber":"","normalized":"largo fra agostino gemelli","lon":9.1766157,"lat":45.4631391},{"id":"way/270662983","kind":"street","name":"Largo Fra Paolo Bellintani","street":"Largo Fra Paolo Bellintani","houseNumber":"","normalized":"largo fra paolo bellintani","lon":9.2044671,"lat":45.4770382},{"id":"way/4868921","kind":"street","name":"Largo Francesco Richini","street":"Largo Francesco Richini","houseNumber":"","normalized":"largo francesco richini","lon":9.1934662,"lat":45.4604081},{"id":"way/264363563","kind":"street","name":"Largo Franco Parenti","street":"Largo Franco Parenti","houseNumber":"","normalized":"largo franco parenti","lon":9.2060014,"lat":45.4535841},{"id":"way/263353546","kind":"street","name":"Largo Fratelli Cervi","street":"Largo Fratelli Cervi","houseNumber":"","normalized":"largo fratelli cervi","lon":9.2157701,"lat":45.4910734},{"id":"way/4019494","kind":"street","name":"Largo Giambellino","street":"Largo Giambellino","houseNumber":"","normalized":"largo giambellino","lon":9.1391548,"lat":45.448338},{"id":"way/26086665","kind":"street","name":"Largo Gianni Rodari","street":"Largo Gianni Rodari","houseNumber":"","normalized":"largo gianni rodari","lon":9.2351667,"lat":45.4617991},{"id":"way/22921813","kind":"street","name":"Largo Gino Allegri","street":"Largo Gino Allegri","houseNumber":"","normalized":"largo gino allegri","lon":9.1929112,"lat":45.5039384},{"id":"way/4059111","kind":"street","name":"Largo Giovan Battista Scalabrini","street":"Largo Giovan Battista Scalabrini","houseNumber":"","normalized":"largo giovan battista scalabrini","lon":9.1411179,"lat":45.4499492},{"id":"way/43073116","kind":"street","name":"Largo Giovanni Muzio","street":"Largo Giovanni Muzio","houseNumber":"","normalized":"largo giovanni muzio","lon":9.1649411,"lat":45.4133805},{"id":"way/162729488","kind":"street","name":"Largo Guido Donegani","street":"Largo Guido Donegani","houseNumber":"","normalized":"largo guido donegani","lon":9.194241,"lat":45.4755085},{"id":"way/8442354","kind":"street","name":"Largo Gustav Mahler","street":"Largo Gustav Mahler","houseNumber":"","normalized":"largo gustav mahler","lon":9.1792954,"lat":45.4463131},{"id":"way/8311400","kind":"street","name":"Largo Ildefonso Schuster","street":"Largo Ildefonso Schuster","houseNumber":"","normalized":"largo ildefonso schuster","lon":9.1924213,"lat":45.4626997},{"id":"way/4018820","kind":"street","name":"Largo Isabella d'Aragona","street":"Largo Isabella d'Aragona","houseNumber":"","normalized":"largo isabella d aragona","lon":9.1903185,"lat":45.4515474},{"id":"way/44578218","kind":"street","name":"Largo Isarco","street":"Largo Isarco","houseNumber":"","normalized":"largo isarco","lon":9.2057136,"lat":45.4444249},{"id":"way/173512368","kind":"street","name":"Largo Jorge Luis Borges","street":"Largo Jorge Luis Borges","houseNumber":"","normalized":"largo jorge luis borges","lon":9.1883923,"lat":45.4627182},{"id":"way/4875763","kind":"street","name":"Largo La Foppa","street":"Largo La Foppa","houseNumber":"","normalized":"largo la foppa","lon":9.1845367,"lat":45.4779475},{"id":"way/174923204","kind":"street","name":"Largo Lino Montagna","street":"Largo Lino Montagna","houseNumber":"","normalized":"largo lino montagna","lon":9.1948069,"lat":45.4707795},{"id":"way/23311759","kind":"street","name":"Largo Luigi Medici","street":"Largo Luigi Medici","houseNumber":"","normalized":"largo luigi medici","lon":9.1730937,"lat":45.4796056},{"id":"way/1349804710","kind":"street","name":"Largo Mahler","street":"Largo Mahler","houseNumber":"","normalized":"largo mahler","lon":9.17927,"lat":45.4458382},{"id":"way/4494466","kind":"street","name":"Largo Marco Biagi","street":"Largo Marco Biagi","houseNumber":"","normalized":"largo marco biagi","lon":9.2009503,"lat":45.4624221},{"id":"way/184004328","kind":"street","name":"Largo Marco Zanuso","street":"Largo Marco Zanuso","houseNumber":"","normalized":"largo marco zanuso","lon":9.1475646,"lat":45.4897904},{"id":"way/7980051","kind":"street","name":"Largo Maria Callas","street":"Largo Maria Callas","houseNumber":"","normalized":"largo maria callas","lon":9.1817864,"lat":45.4677122},{"id":"way/264437083","kind":"street","name":"Largo Martiri delle Foibe","street":"Largo Martiri delle Foibe","houseNumber":"","normalized":"largo martiri delle foibe","lon":9.1998807,"lat":45.5016423},{"id":"way/1121713932","kind":"street","name":"Largo Mattei","street":"Largo Mattei","houseNumber":"","normalized":"largo mattei","lon":9.2211981,"lat":45.5139539},{"id":"way/266131800","kind":"street","name":"Largo Missionari Comboniani","street":"Largo Missionari Comboniani","houseNumber":"","normalized":"largo missionari comboniani","lon":9.1804079,"lat":45.5220425},{"id":"way/4011942","kind":"street","name":"Largo Monsignor Giuseppe Bicchierai","street":"Largo Monsignor Giuseppe Bicchierai","houseNumber":"","normalized":"largo monsignor giuseppe bicchierai","lon":9.1659817,"lat":45.4695452},{"id":"way/1092110161","kind":"street","name":"Largo Murani","street":"Largo Murani","houseNumber":"","normalized":"largo murani","lon":9.2338881,"lat":45.4733897},{"id":"way/112426176","kind":"street","name":"Largo Nicola Abbagnano","street":"Largo Nicola Abbagnano","houseNumber":"","normalized":"largo nicola abbagnano","lon":9.1640393,"lat":45.5272702},{"id":"way/23202031","kind":"street","name":"Largo Oreste Murani","street":"Largo Oreste Murani","houseNumber":"","normalized":"largo oreste murani","lon":9.234409,"lat":45.4730973},{"id":"way/25686851","kind":"street","name":"Largo Paolo D'Ancona","street":"Largo Paolo D'Ancona","houseNumber":"","normalized":"largo paolo d ancona","lon":9.1755183,"lat":45.4659078},{"id":"way/586583625","kind":"street","name":"Largo Paolo Grassi","street":"Largo Paolo Grassi","houseNumber":"","normalized":"largo paolo grassi","lon":9.1828084,"lat":45.4732093},{"id":"way/23948577","kind":"street","name":"Largo Paolo Valera","street":"Largo Paolo Valera","houseNumber":"","normalized":"largo paolo valera","lon":9.110996,"lat":45.4974069},{"id":"way/23263487","kind":"street","name":"Largo Porto di Classe","street":"Largo Porto di Classe","houseNumber":"","normalized":"largo porto di classe","lon":9.2299221,"lat":45.467386},{"id":"way/273258734","kind":"street","name":"Largo Promessi Sposi","street":"Largo Promessi Sposi","houseNumber":"","normalized":"largo promessi sposi","lon":9.1734728,"lat":45.4349746},{"id":"way/4521135","kind":"street","name":"Largo Quinto Alpini","street":"Largo Quinto Alpini","houseNumber":"","normalized":"largo quinto alpini","lon":9.1664956,"lat":45.4718213},{"id":"way/464309361","kind":"street","name":"Largo Radaelli","street":"Largo Radaelli","houseNumber":"","normalized":"largo radaelli","lon":9.2400013,"lat":45.4329253},{"id":"way/163757282","kind":"street","name":"Largo Raffaele Mattioli","street":"Largo Raffaele Mattioli","houseNumber":"","normalized":"largo raffaele mattioli","lon":9.1914265,"lat":45.4669744},{"id":"way/23396325","kind":"street","name":"Largo Rapallo","street":"Largo Rapallo","houseNumber":"","normalized":"largo rapallo","lon":9.1915307,"lat":45.5064115},{"id":"way/596174401","kind":"street","name":"Largo Redaelli","street":"Largo Redaelli","houseNumber":"","normalized":"largo redaelli","lon":9.2402674,"lat":45.4326983},{"id":"way/4497409","kind":"street","name":"Largo Riccardo Zandonai","street":"Largo Riccardo Zandonai","houseNumber":"","normalized":"largo riccardo zandonai","lon":9.1602367,"lat":45.4709641},{"id":"way/23815295","kind":"street","name":"Largo Rio de Janeiro","street":"Largo Rio de Janeiro","houseNumber":"","normalized":"largo rio de janeiro","lon":9.2231801,"lat":45.4728422},{"id":"way/263551228","kind":"street","name":"Largo San Dionigi in Pratocentenaro","street":"Largo San Dionigi in Pratocentenaro","houseNumber":"","normalized":"largo san dionigi in pratocentenaro","lon":9.199055,"lat":45.5092497},{"id":"way/208265498","kind":"street","name":"Largo San Valentino","street":"Largo San Valentino","houseNumber":"","normalized":"largo san valentino","lon":9.2128257,"lat":45.4969064},{"id":"way/4494837","kind":"street","name":"Largo Settimio Severo","street":"Largo Settimio Severo","houseNumber":"","normalized":"largo settimio severo","lon":9.1623091,"lat":45.4661717},{"id":"way/535564050","kind":"street","name":"Largo Sibilla Aleramo","street":"Largo Sibilla Aleramo","houseNumber":"","normalized":"largo sibilla aleramo","lon":9.1849531,"lat":45.4812268},{"id":"way/33782335","kind":"street","name":"Largo Tazio Nuvolari","street":"Largo Tazio Nuvolari","houseNumber":"","normalized":"largo tazio nuvolari","lon":9.1680448,"lat":45.441999},{"id":"way/24324066","kind":"street","name":"Largo Tel Aviv","street":"Largo Tel Aviv","houseNumber":"","normalized":"largo tel aviv","lon":9.234666,"lat":45.4980124},{"id":"way/44935939","kind":"street","name":"Largo Tommaso Gallarati Scotti","street":"Largo Tommaso Gallarati Scotti","houseNumber":"","normalized":"largo tommaso gallarati scotti","lon":9.1828419,"lat":45.4596336},{"id":"way/4857308","kind":"street","name":"Largo Umberto Boccioni","street":"Largo Umberto Boccioni","houseNumber":"","normalized":"largo umberto boccioni","lon":9.1297823,"lat":45.5105366},{"id":"way/131542797","kind":"street","name":"Largo Victor de Sabata","street":"Largo Victor de Sabata","houseNumber":"","normalized":"largo victor de sabata","lon":9.1887511,"lat":45.468503},{"id":"way/24387381","kind":"street","name":"Largo Vincenzo Gemito","street":"Largo Vincenzo Gemito","houseNumber":"","normalized":"largo vincenzo gemito","lon":9.2328385,"lat":45.4889626},{"id":"way/148370875","kind":"street","name":"Largo Vittorio Sereni","street":"Largo Vittorio Sereni","houseNumber":"","normalized":"largo vittorio sereni","lon":9.2351492,"lat":45.4670209},{"id":"way/128362077","kind":"street","name":"Largo Volontari del Sangue","street":"Largo Volontari del Sangue","houseNumber":"","normalized":"largo volontari del sangue","lon":9.2329546,"lat":45.4795469},{"id":"way/22722018","kind":"street","name":"Largo Vulci","street":"Largo Vulci","houseNumber":"","normalized":"largo vulci","lon":9.1936143,"lat":45.4983608},{"id":"way/1190559184","kind":"street","name":"Litta Modignani Comasina","street":"Litta Modignani Comasina","houseNumber":"","normalized":"litta modignani comasina","lon":9.1642903,"lat":45.5237247},{"id":"way/1079412251","kind":"street","name":"Lodi M3","street":"Lodi M3","houseNumber":"","normalized":"lodi m3","lon":9.2092691,"lat":45.4468194},{"id":"way/1092649452","kind":"street","name":"Loreto M1 M2","street":"Loreto M1 M2","houseNumber":"","normalized":"loreto m1 m2","lon":9.2181415,"lat":45.4859158},{"id":"way/1089032301","kind":"street","name":"Lotto M1 M5","street":"Lotto M1 M5","houseNumber":"","normalized":"lotto m1 m5","lon":9.1440623,"lat":45.4788127},{"id":"way/136292541","kind":"street","name":"Maciachini M3","street":"Maciachini M3","houseNumber":"","normalized":"maciachini m3","lon":9.1857939,"lat":45.4982391},{"id":"way/242097270","kind":"street","name":"Marche M5","street":"Marche M5","houseNumber":"","normalized":"marche m5","lon":9.1944897,"lat":45.4960431},{"id":"way/379873069","kind":"street","name":"Missori M3","street":"Missori M3","houseNumber":"","normalized":"missori m3","lon":9.1886679,"lat":45.4603982},{"id":"way/1246948383","kind":"street","name":"Montenapoleone M3","street":"Montenapoleone M3","houseNumber":"","normalized":"montenapoleone m3","lon":9.1914325,"lat":45.4699271},{"id":"way/498026590","kind":"street","name":"Monumentale M5","street":"Monumentale M5","houseNumber":"","normalized":"monumentale m5","lon":9.1803981,"lat":45.4845755},{"id":"way/1047159548","kind":"street","name":"Niguarda Centro","street":"Niguarda Centro","houseNumber":"","normalized":"niguarda centro","lon":9.1912848,"lat":45.5145505},{"id":"way/136292211","kind":"street","name":"Niguarda Nord","street":"Niguarda Nord","houseNumber":"","normalized":"niguarda nord","lon":9.1920398,"lat":45.518777},{"id":"way/201778052","kind":"street","name":"Nuova Strada Vigevanese","street":"Nuova Strada Vigevanese","houseNumber":"","normalized":"nuova strada vigevanese","lon":9.113796,"lat":45.4423478},{"id":"way/1383824387","kind":"street","name":"Nuovo accesso M3","street":"Nuovo accesso M3","houseNumber":"","normalized":"nuovo accesso m3","lon":9.191249,"lat":45.4603859},{"id":"way/297663247","kind":"street","name":"Open Air Theatre","street":"Open Air Theatre","houseNumber":"","normalized":"open air theatre","lon":9.106219,"lat":45.5166712},{"id":"way/136292491","kind":"street","name":"Ospedale Maggiore (Niguarda)","street":"Ospedale Maggiore (Niguarda)","houseNumber":"","normalized":"ospedale maggiore niguarda","lon":9.1904356,"lat":45.5089329},{"id":"way/1153984491","kind":"street","name":"Ospedale San Carlo","street":"Ospedale San Carlo","houseNumber":"","normalized":"ospedale san carlo","lon":9.1149532,"lat":45.4708074},{"id":"way/1036500644","kind":"street","name":"Ospedale San Carlo - 78 e 49","street":"Ospedale San Carlo - 78 e 49","houseNumber":"","normalized":"ospedale san carlo 78 e 49","lon":9.1157344,"lat":45.4699283},{"id":"way/1205736311","kind":"street","name":"Padova Rizzoli","street":"Padova Rizzoli","houseNumber":"","normalized":"padova rizzoli","lon":9.2589159,"lat":45.5121208},{"id":"way/1112064000","kind":"street","name":"Parco 8 Marzo","street":"Parco 8 Marzo","houseNumber":"","normalized":"parco 8 marzo","lon":9.2179963,"lat":45.4592471},{"id":"way/172802157","kind":"street","name":"Parco Nord - Torretta","street":"Parco Nord - Torretta","houseNumber":"","normalized":"parco nord torretta","lon":9.2135631,"lat":45.5298333},{"id":"way/4520087","kind":"street","name":"Passaggio Centrale","street":"Passaggio Centrale","houseNumber":"","normalized":"passaggio centrale","lon":9.1860507,"lat":45.4643169},{"id":"way/45178854","kind":"street","name":"Passaggio degli Osii","street":"Passaggio degli Osii","houseNumber":"","normalized":"passaggio degli osii","lon":9.1878731,"lat":45.464335},{"id":"way/45178843","kind":"street","name":"Passaggio Duomo","street":"Passaggio Duomo","houseNumber":"","normalized":"passaggio duomo","lon":9.1881775,"lat":45.4641945},{"id":"way/53869265","kind":"street","name":"Passaggio Giovanni Malagodi","street":"Passaggio Giovanni Malagodi","houseNumber":"","normalized":"passaggio giovanni malagodi","lon":9.1888222,"lat":45.4665953},{"id":"way/590876610","kind":"street","name":"Passaggio Juri Pelikan","street":"Passaggio Juri Pelikan","houseNumber":"","normalized":"passaggio juri pelikan","lon":9.1837284,"lat":45.4454292},{"id":"way/1266915733","kind":"street","name":"Passaggio Mario Achille Severgnini","street":"Passaggio Mario Achille Severgnini","houseNumber":"","normalized":"passaggio mario achille severgnini","lon":9.1824727,"lat":45.4664686},{"id":"way/27626416","kind":"street","name":"Passaggio Santa Margherita","street":"Passaggio Santa Margherita","houseNumber":"","normalized":"passaggio santa margherita","lon":9.1876595,"lat":45.4650947},{"id":"way/57744803","kind":"street","name":"Passaggio Scuole Palatine","street":"Passaggio Scuole Palatine","houseNumber":"","normalized":"passaggio scuole palatine","lon":9.18724,"lat":45.4646537},{"id":"way/169328558","kind":"street","name":"Passaggio Suor Rosa Sozzi","street":"Passaggio Suor Rosa Sozzi","houseNumber":"","normalized":"passaggio suor rosa sozzi","lon":9.1463199,"lat":45.5121511},{"id":"way/370874872","kind":"street","name":"Passaggio verso pista trotto","street":"Passaggio verso pista trotto","houseNumber":"","normalized":"passaggio verso pista trotto","lon":9.1258913,"lat":45.4762632},{"id":"way/460008832","kind":"street","name":"Passeggiata Boris Pasternak","street":"Passeggiata Boris Pasternak","houseNumber":"","normalized":"passeggiata boris pasternak","lon":9.1839408,"lat":45.4813531},{"id":"way/183063805","kind":"street","name":"Passeggiata Emenuela Setti Carraro","street":"Passeggiata Emenuela Setti Carraro","houseNumber":"","normalized":"passeggiata emenuela setti carraro","lon":9.2060257,"lat":45.4664437},{"id":"way/1092581141","kind":"street","name":"Passeggiata Gianni Sassi","street":"Passeggiata Gianni Sassi","houseNumber":"","normalized":"passeggiata gianni sassi","lon":9.158101,"lat":45.4768241},{"id":"way/199118471","kind":"street","name":"Passeggiata Luigi Veronelli","street":"Passeggiata Luigi Veronelli","houseNumber":"","normalized":"passeggiata luigi veronelli","lon":9.1904454,"lat":45.4844161},{"id":"way/131474270","kind":"street","name":"Passeggiata Monsignor Egidio Vergani","street":"Passeggiata Monsignor Egidio Vergani","houseNumber":"","normalized":"passeggiata monsignor egidio vergani","lon":9.2258132,"lat":45.5137556},{"id":"way/89873771","kind":"street","name":"Passeggiata Umberto Eco","street":"Passeggiata Umberto Eco","houseNumber":"","normalized":"passeggiata umberto eco","lon":9.1817309,"lat":45.4696581},{"id":"way/184000537","kind":"street","name":"Passerella Alcide De Gasperi","street":"Passerella Alcide De Gasperi","houseNumber":"","normalized":"passerella alcide de gasperi","lon":9.1462535,"lat":45.4898683},{"id":"way/54912908","kind":"street","name":"Passerella De Gasperi","street":"Passerella De Gasperi","houseNumber":"","normalized":"passerella de gasperi","lon":9.146835,"lat":45.4890327},{"id":"way/580530455","kind":"street","name":"Passerella Elvira Leonardi Bouyeure","street":"Passerella Elvira Leonardi Bouyeure","houseNumber":"","normalized":"passerella elvira leonardi bouyeure","lon":9.1696573,"lat":45.454818},{"id":"way/23430101","kind":"street","name":"Passerella Enrico Fermi","street":"Passerella Enrico Fermi","houseNumber":"","normalized":"passerella enrico fermi","lon":9.1786356,"lat":45.5156075},{"id":"way/1076071580","kind":"street","name":"Passerella Gioia","street":"Passerella Gioia","houseNumber":"","normalized":"passerella gioia","lon":9.192529,"lat":45.4825981},{"id":"way/717300511","kind":"street","name":"Passerella pedonale Merlata - MIND","street":"Passerella pedonale Merlata - MIND","houseNumber":"","normalized":"passerella pedonale merlata mind","lon":9.1037828,"lat":45.5155973},{"id":"way/172927153","kind":"street","name":"Passerella San Cristoforo al Naviglio","street":"Passerella San Cristoforo al Naviglio","houseNumber":"","normalized":"passerella san cristoforo al naviglio","lon":9.1545961,"lat":45.4475269},{"id":"way/179246060","kind":"street","name":"Passerella Serra","street":"Passerella Serra","houseNumber":"","normalized":"passerella serra","lon":9.147499,"lat":45.487961},{"id":"way/1092884645","kind":"street","name":"Pasteur M1","street":"Pasteur M1","houseNumber":"","normalized":"pasteur m1","lon":9.2181943,"lat":45.4905548},{"id":"way/943567636","kind":"street","name":"Percorso bici Cava Ognari","street":"Percorso bici Cava Ognari","houseNumber":"","normalized":"percorso bici cava ognari","lon":9.0969574,"lat":45.472855},{"id":"way/915197348","kind":"street","name":"Percorso campestre","street":"Percorso campestre","houseNumber":"","normalized":"percorso campestre","lon":9.2326333,"lat":45.4776829},{"id":"way/587886145","kind":"street","name":"Percorso Vita","street":"Percorso Vita","houseNumber":"","normalized":"percorso vita","lon":9.2349252,"lat":45.4312336},{"id":"way/310817829","kind":"street","name":"Piazza 24 Maggio","street":"Piazza 24 Maggio","houseNumber":"","normalized":"piazza 24 maggio","lon":9.1792584,"lat":45.452352},{"id":"way/24245906","kind":"street","name":"Piazza Abbiategrasso","street":"Piazza Abbiategrasso","houseNumber":"","normalized":"piazza abbiategrasso","lon":9.1783949,"lat":45.4299943},{"id":"way/137206432","kind":"street","name":"Piazza Abbiategrasso M2","street":"Piazza Abbiategrasso M2","houseNumber":"","normalized":"piazza abbiategrasso m2","lon":9.1775875,"lat":45.429355},{"id":"way/1266915735","kind":"street","name":"Piazza Adelaide Brignone","street":"Piazza Adelaide Brignone","houseNumber":"","normalized":"piazza adelaide brignone","lon":9.1823158,"lat":45.4664913},{"id":"way/355519433","kind":"street","name":"Piazza Adelaide di Savoia","street":"Piazza Adelaide di Savoia","houseNumber":"","normalized":"piazza adelaide di savoia","lon":9.2144149,"lat":45.4731565},{"id":"way/366488240","kind":"street","name":"Piazza Adigrat","street":"Piazza Adigrat","houseNumber":"","normalized":"piazza adigrat","lon":9.2273229,"lat":45.4654952},{"id":"way/632103261","kind":"street","name":"Piazza Adriano Olivetti","street":"Piazza Adriano Olivetti","houseNumber":"","normalized":"piazza adriano olivetti","lon":9.2042513,"lat":45.4430953},{"id":"way/211199032","kind":"street","name":"Piazza Agrippa","street":"Piazza Agrippa","houseNumber":"","normalized":"piazza agrippa","lon":9.1842731,"lat":45.4334504},{"id":"way/375836044","kind":"street","name":"Piazza Alberto Burri","street":"Piazza Alberto Burri","houseNumber":"","normalized":"piazza alberto burri","lon":9.1579676,"lat":45.4776001},{"id":"way/1091023096","kind":"street","name":"Piazza Amati","street":"Piazza Amati","houseNumber":"","normalized":"piazza amati","lon":9.1251086,"lat":45.4694291},{"id":"way/25140435","kind":"street","name":"Piazza Andrea Fusina","street":"Piazza Andrea Fusina","houseNumber":"","normalized":"piazza andrea fusina","lon":9.2294432,"lat":45.4685897},{"id":"way/24245235","kind":"street","name":"Piazza Angelo Sraffa","street":"Piazza Angelo Sraffa","houseNumber":"","normalized":"piazza angelo sraffa","lon":9.18713,"lat":45.4489876},{"id":"way/58865422","kind":"street","name":"Piazza Angilberto II","street":"Piazza Angilberto II","houseNumber":"","normalized":"piazza angilberto ii","lon":9.2172471,"lat":45.437081},{"id":"way/11477887","kind":"street","name":"Piazza Angilberto Secondo","street":"Piazza Angilberto Secondo","houseNumber":"","normalized":"piazza angilberto secondo","lon":9.2168768,"lat":45.4368072},{"id":"way/96856418","kind":"street","name":"Piazza Anita Garibaldi","street":"Piazza Anita Garibaldi","houseNumber":"","normalized":"piazza anita garibaldi","lon":9.08763,"lat":45.4630787},{"id":"way/275216679","kind":"street","name":"Piazza Antonio Gramsci","street":"Piazza Antonio Gramsci","houseNumber":"","normalized":"piazza antonio gramsci","lon":9.1681246,"lat":45.4820141},{"id":"way/14207706","kind":"street","name":"Piazza Appio Claudio","street":"Piazza Appio Claudio","houseNumber":"","normalized":"piazza appio claudio","lon":9.194628,"lat":45.4923627},{"id":"way/4692481","kind":"street","name":"Piazza Arcole","street":"Piazza Arcole","houseNumber":"","normalized":"piazza arcole","lon":9.1725941,"lat":45.449781},{"id":"way/246285905","kind":"street","name":"Piazza Argentina","street":"Piazza Argentina","houseNumber":"","normalized":"piazza argentina","lon":9.2146201,"lat":45.4843305},{"id":"way/43375972","kind":"street","name":"Piazza Armando Diaz","street":"Piazza Armando Diaz","houseNumber":"","normalized":"piazza armando diaz","lon":9.1897182,"lat":45.4621971},{"id":"way/24972075","kind":"street","name":"Piazza Arnoldo Mondadori","street":"Piazza Arnoldo Mondadori","houseNumber":"","normalized":"piazza arnoldo mondadori","lon":9.191537,"lat":45.4530435},{"id":"way/1467963494","kind":"street","name":"Piazza Arrigo Arrighetti","street":"Piazza Arrigo Arrighetti","houseNumber":"","normalized":"piazza arrigo arrighetti","lon":9.1615861,"lat":45.431265},{"id":"way/181449316","kind":"street","name":"Piazza Artigianato","street":"Piazza Artigianato","houseNumber":"","normalized":"piazza artigianato","lon":9.2441876,"lat":45.4611058},{"id":"way/288756114","kind":"street","name":"Piazza Ascoli","street":"Piazza Ascoli","houseNumber":"","normalized":"piazza ascoli","lon":9.2171308,"lat":45.4729614},{"id":"way/251311898","kind":"street","name":"Piazza Aspari","street":"Piazza Aspari","houseNumber":"","normalized":"piazza aspari","lon":9.2209276,"lat":45.4719276},{"id":"way/23813683","kind":"street","name":"Piazza Aspromonte","street":"Piazza Aspromonte","houseNumber":"","normalized":"piazza aspromonte","lon":9.2193153,"lat":45.4841302},{"id":"way/24046887","kind":"street","name":"Piazza Axum","street":"Piazza Axum","houseNumber":"","normalized":"piazza axum","lon":9.1233076,"lat":45.4756332},{"id":"way/1026953270","kind":"street","name":"Piazza Axum (Stadio Meazza)","street":"Piazza Axum (Stadio Meazza)","houseNumber":"","normalized":"piazza axum stadio meazza","lon":9.1246965,"lat":45.4761689},{"id":"way/27626473","kind":"street","name":"Piazza Belgioioso","street":"Piazza Belgioioso","houseNumber":"","normalized":"piazza belgioioso","lon":9.192447,"lat":45.4673555},{"id":"way/1238068359","kind":"street","name":"Piazza Belloveso","street":"Piazza Belloveso","houseNumber":"","normalized":"piazza belloveso","lon":9.1947091,"lat":45.5156874},{"id":"way/7980913","kind":"street","name":"Piazza Bibbiena","street":"Piazza Bibbiena","houseNumber":"","normalized":"piazza bibbiena","lon":9.1851106,"lat":45.4449251},{"id":"way/4011857","kind":"street","name":"Piazza Bilbao","street":"Piazza Bilbao","houseNumber":"","normalized":"piazza bilbao","lon":9.1593845,"lat":45.4433426},{"id":"way/1080032818","kind":"street","name":"Piazza Bonomelli","street":"Piazza Bonomelli","houseNumber":"","normalized":"piazza bonomelli","lon":9.2146615,"lat":45.4411679},{"id":"way/515460395","kind":"street","name":"Piazza Borromeo","street":"Piazza Borromeo","houseNumber":"","normalized":"piazza borromeo","lon":9.1825138,"lat":45.463549},{"id":"way/36909003","kind":"street","name":"Piazza Bruno Buozzi","street":"Piazza Bruno Buozzi","houseNumber":"","normalized":"piazza bruno buozzi","lon":9.2061824,"lat":45.4498199},{"id":"way/78084874","kind":"street","name":"Piazza Bruzzano","street":"Piazza Bruzzano","houseNumber":"","normalized":"piazza bruzzano","lon":9.1739379,"lat":45.5270939},{"id":"way/1079405665","kind":"street","name":"Piazza Buozzi","street":"Piazza Buozzi","houseNumber":"","normalized":"piazza buozzi","lon":9.2060585,"lat":45.4499306},{"id":"way/44285121","kind":"street","name":"Piazza Caduti del Lavoro","street":"Piazza Caduti del Lavoro","houseNumber":"","normalized":"piazza caduti del lavoro","lon":9.1849672,"lat":45.4437311},{"id":"way/41427656","kind":"street","name":"Piazza Caduti e Dispersi in Russia","street":"Piazza Caduti e Dispersi in Russia","houseNumber":"","normalized":"piazza caduti e dispersi in russia","lon":9.2543406,"lat":45.4902879},{"id":"way/85906504","kind":"street","name":"Piazza Caiazzo","street":"Piazza Caiazzo","houseNumber":"","normalized":"piazza caiazzo","lon":9.209677,"lat":45.4853453},{"id":"way/4494835","kind":"street","name":"Piazza Camillo De Meis","street":"Piazza Camillo De Meis","houseNumber":"","normalized":"piazza camillo de meis","lon":9.1639435,"lat":45.4635659},{"id":"way/4857433","kind":"street","name":"Piazza Carbonari","street":"Piazza Carbonari","houseNumber":"","normalized":"piazza carbonari","lon":9.2015199,"lat":45.4938559},{"id":"way/7980625","kind":"street","name":"Piazza Cardinale Andrea Ferrari","street":"Piazza Cardinale Andrea Ferrari","houseNumber":"","normalized":"piazza cardinale andrea ferrari","lon":9.1925169,"lat":45.4553901},{"id":"way/114333620","kind":"street","name":"Piazza Cardinale Pietro Gasparri","street":"Piazza Cardinale Pietro Gasparri","houseNumber":"","normalized":"piazza cardinale pietro gasparri","lon":9.1611028,"lat":45.5261518},{"id":"way/26702454","kind":"street","name":"Piazza Carlo Amati","street":"Piazza Carlo Amati","houseNumber":"","normalized":"piazza carlo amati","lon":9.1268312,"lat":45.4686166},{"id":"way/4615522","kind":"street","name":"Piazza Carlo Caneva","street":"Piazza Carlo Caneva","houseNumber":"","normalized":"piazza carlo caneva","lon":9.1616238,"lat":45.4874802},{"id":"way/23728256","kind":"street","name":"Piazza Carlo Donegani","street":"Piazza Carlo Donegani","houseNumber":"","normalized":"piazza carlo donegani","lon":9.2322094,"lat":45.4821541},{"id":"way/23566447","kind":"street","name":"Piazza Carlo Erba","street":"Piazza Carlo Erba","houseNumber":"","normalized":"piazza carlo erba","lon":9.2215124,"lat":45.4748193},{"id":"way/4520729","kind":"street","name":"Piazza Carlo Irnerio","street":"Piazza Carlo Irnerio","houseNumber":"","normalized":"piazza carlo irnerio","lon":9.1534515,"lat":45.4616295},{"id":"way/26613674","kind":"street","name":"Piazza Carlo Mirabello","street":"Piazza Carlo Mirabello","houseNumber":"","normalized":"piazza carlo mirabello","lon":9.1899615,"lat":45.4753508},{"id":"way/24946912","kind":"street","name":"Piazza Carlo Stuparich","street":"Piazza Carlo Stuparich","houseNumber":"","normalized":"piazza carlo stuparich","lon":9.1430293,"lat":45.4831921},{"id":"way/286022691","kind":"street","name":"Piazza Cartagine","street":"Piazza Cartagine","houseNumber":"","normalized":"piazza cartagine","lon":9.238024,"lat":45.4562995},{"id":"way/145129163","kind":"street","name":"Piazza Caserta","street":"Piazza Caserta","houseNumber":"","normalized":"piazza caserta","lon":9.196012,"lat":45.5013618},{"id":"way/244137561","kind":"street","name":"Piazza Castelli","street":"Piazza Castelli","houseNumber":"","normalized":"piazza castelli","lon":9.1499701,"lat":45.4990322},{"id":"way/4073513","kind":"street","name":"Piazza Castello","street":"Piazza Castello","houseNumber":"","normalized":"piazza castello","lon":9.1797893,"lat":45.4724069},{"id":"way/10753785","kind":"street","name":"Piazza Cavour","street":"Piazza Cavour","houseNumber":"","normalized":"piazza cavour","lon":9.1963312,"lat":45.4729587},{"id":"way/37634347","kind":"street","name":"Piazza Cesare Beccaria","street":"Piazza Cesare Beccaria","houseNumber":"","normalized":"piazza cesare beccaria","lon":9.194905,"lat":45.4641696},{"id":"way/98366693","kind":"street","name":"Piazza Cesare Stovani","street":"Piazza Cesare Stovani","houseNumber":"","normalized":"piazza cesare stovani","lon":9.0926966,"lat":45.4607429},{"id":"way/1116250032","kind":"street","name":"Piazza Chiaradia","street":"Piazza Chiaradia","houseNumber":"","normalized":"piazza chiaradia","lon":9.1965665,"lat":45.4373008},{"id":"way/1342471699","kind":"street","name":"Piazza Cincinnato","street":"Piazza Cincinnato","houseNumber":"","normalized":"piazza cincinnato","lon":9.2038852,"lat":45.4800718},{"id":"way/4018831","kind":"street","name":"Piazza Cinque Giornate","street":"Piazza Cinque Giornate","houseNumber":"","normalized":"piazza cinque giornate","lon":9.2067351,"lat":45.462549},{"id":"way/1425288605","kind":"street","name":"Piazza Città di Lombardia","street":"Piazza Città di Lombardia","houseNumber":"","normalized":"piazza citta di lombardia","lon":9.1960742,"lat":45.4867374},{"id":"way/349183146","kind":"street","name":"Piazza Compasso d’Oro","street":"Piazza Compasso d’Oro","houseNumber":"","normalized":"piazza compasso d oro","lon":9.17962,"lat":45.4834528},{"id":"way/145016432","kind":"street","name":"Piazza Cordusio","street":"Piazza Cordusio","houseNumber":"","normalized":"piazza cordusio","lon":9.1865854,"lat":45.4654875},{"id":"way/22737315","kind":"street","name":"Piazza Coriolano","street":"Piazza Coriolano","houseNumber":"","normalized":"piazza coriolano","lon":9.1740754,"lat":45.4875986},{"id":"way/4907626","kind":"street","name":"Piazza Costantino","street":"Piazza Costantino","houseNumber":"","normalized":"piazza costantino","lon":9.247611,"lat":45.5095237},{"id":"way/24348441","kind":"street","name":"Piazza Davide Sesia","street":"Piazza Davide Sesia","houseNumber":"","normalized":"piazza davide sesia","lon":9.2290602,"lat":45.498512},{"id":"way/4520043","kind":"street","name":"Piazza degli Affari","street":"Piazza degli Affari","houseNumber":"","normalized":"piazza degli affari","lon":9.1829443,"lat":45.464727},{"id":"way/267216727","kind":"street","name":"Piazza degli Aquiloni","street":"Piazza degli Aquiloni","houseNumber":"","normalized":"piazza degli aquiloni","lon":9.1690515,"lat":45.5287628},{"id":"way/23147258","kind":"street","name":"Piazza dei Daini","street":"Piazza dei Daini","houseNumber":"","normalized":"piazza dei daini","lon":9.2111995,"lat":45.5154388},{"id":"way/7980613","kind":"street","name":"Piazza dei Mercanti","street":"Piazza dei Mercanti","houseNumber":"","normalized":"piazza dei mercanti","lon":9.1881628,"lat":45.4646949},{"id":"way/24731533","kind":"street","name":"Piazza dei Piccoli Martiri","street":"Piazza dei Piccoli Martiri","houseNumber":"","normalized":"piazza dei piccoli martiri","lon":9.2243198,"lat":45.5043945},{"id":"way/1292634853","kind":"street","name":"Piazza dei Saperi","street":"Piazza dei Saperi","houseNumber":"","normalized":"piazza dei saperi","lon":9.0906938,"lat":45.4631052},{"id":"way/685235529","kind":"street","name":"Piazza dei Volontari","street":"Piazza dei Volontari","houseNumber":"","normalized":"piazza dei volontari","lon":9.1698191,"lat":45.4755912},{"id":"way/120248977","kind":"street","name":"Piazza del Cannone","street":"Piazza del Cannone","houseNumber":"","normalized":"piazza del cannone","lon":9.1779412,"lat":45.471576},{"id":"way/38001045","kind":"street","name":"Piazza del Carmine","street":"Piazza del Carmine","houseNumber":"","normalized":"piazza del carmine","lon":9.1852222,"lat":45.470308},{"id":"way/1147309403","kind":"street","name":"Piazza del design","street":"Piazza del design","houseNumber":"","normalized":"piazza del design","lon":9.1632941,"lat":45.4506047},{"id":"way/35875010","kind":"street","name":"Piazza del Duomo","street":"Piazza del Duomo","houseNumber":"","normalized":"piazza del duomo","lon":9.1908991,"lat":45.4646785},{"id":"way/274948067","kind":"street","name":"Piazza del Liberty","street":"Piazza del Liberty","houseNumber":"","normalized":"piazza del liberty","lon":9.1942067,"lat":45.4655745},{"id":"way/4011885","kind":"street","name":"Piazza del Rosario","street":"Piazza del Rosario","houseNumber":"","normalized":"piazza del rosario","lon":9.1630805,"lat":45.4550822},{"id":"way/4018799","kind":"street","name":"Piazza del Tricolore","street":"Piazza del Tricolore","houseNumber":"","normalized":"piazza del tricolore","lon":9.2057399,"lat":45.4679202},{"id":"way/210738879","kind":"street","name":"Piazza dell'Assunta","street":"Piazza dell'Assunta","houseNumber":"","normalized":"piazza dell assunta","lon":9.2030229,"lat":45.4336168},{"id":"way/116570067","kind":"street","name":"Piazza dell'Ateneo Nuovo","street":"Piazza dell'Ateneo Nuovo","houseNumber":"","normalized":"piazza dell ateneo nuovo","lon":9.214293,"lat":45.51823},{"id":"way/288164592","kind":"street","name":"Piazza dell'Ospedale Maggiore","street":"Piazza dell'Ospedale Maggiore","houseNumber":"","normalized":"piazza dell ospedale maggiore","lon":9.1890491,"lat":45.5091562},{"id":"way/148359599","kind":"street","name":"Piazza della Conciliazione","street":"Piazza della Conciliazione","houseNumber":"","normalized":"piazza della conciliazione","lon":9.1662824,"lat":45.4673039},{"id":"way/4875758","kind":"street","name":"Piazza della Repubblica","street":"Piazza della Repubblica","houseNumber":"","normalized":"piazza della repubblica","lon":9.1985334,"lat":45.480492},{"id":"way/51855670","kind":"street","name":"Piazza della Resistenza Partigiana","street":"Piazza della Resistenza Partigiana","houseNumber":"","normalized":"piazza della resistenza partigiana","lon":9.1777498,"lat":45.4587861},{"id":"way/163757284","kind":"street","name":"Piazza della Scala","street":"Piazza della Scala","houseNumber":"","normalized":"piazza della scala","lon":9.1900979,"lat":45.4673106},{"id":"way/138917479","kind":"street","name":"Piazza della Scienza","street":"Piazza della Scienza","houseNumber":"","normalized":"piazza della scienza","lon":9.2111475,"lat":45.5135072},{"id":"way/214159028","kind":"street","name":"Piazza della Trivulziana","street":"Piazza della Trivulziana","houseNumber":"","normalized":"piazza della trivulziana","lon":9.2120671,"lat":45.5150077},{"id":"way/35361602","kind":"street","name":"Piazza della Vetra","street":"Piazza della Vetra","houseNumber":"","normalized":"piazza della vetra","lon":9.1832649,"lat":45.458012},{"id":"way/23300078","kind":"street","name":"Piazza Dergano","street":"Piazza Dergano","houseNumber":"","normalized":"piazza dergano","lon":9.1766165,"lat":45.5029643},{"id":"way/4615523","kind":"street","name":"Piazza Diocleziano","street":"Piazza Diocleziano","houseNumber":"","normalized":"piazza diocleziano","lon":9.1662503,"lat":45.487865},{"id":"way/23817200","kind":"street","name":"Piazza Domenico Aspari","street":"Piazza Domenico Aspari","houseNumber":"","normalized":"piazza domenico aspari","lon":9.2212922,"lat":45.4717101},{"id":"way/31899250","kind":"street","name":"Piazza Domenico Ghirlandaio","street":"Piazza Domenico Ghirlandaio","houseNumber":"","normalized":"piazza domenico ghirlandaio","lon":9.1464683,"lat":45.4668265},{"id":"way/105919874","kind":"street","name":"Piazza Don Bruno de Biasio","street":"Piazza Don Bruno de Biasio","houseNumber":"","normalized":"piazza don bruno de biasio","lon":9.1778303,"lat":45.5026139},{"id":"way/402374717","kind":"street","name":"Piazza Don Luigi Borotti","street":"Piazza Don Luigi Borotti","houseNumber":"","normalized":"piazza don luigi borotti","lon":9.2433661,"lat":45.4886866},{"id":"way/264480534","kind":"street","name":"Piazza Don Piero Carnelli","street":"Piazza Don Piero Carnelli","houseNumber":"","normalized":"piazza don piero carnelli","lon":9.2436607,"lat":45.4585156},{"id":"way/89684050","kind":"street","name":"Piazza Duca d'Aosta","street":"Piazza Duca d'Aosta","houseNumber":"","normalized":"piazza duca d aosta","lon":9.2019593,"lat":45.4846108},{"id":"way/1092837090","kind":"street","name":"Piazza Durante","street":"Piazza Durante","houseNumber":"","normalized":"piazza durante","lon":9.2228904,"lat":45.4886507},{"id":"way/254552264","kind":"street","name":"Piazza Edmond Jacob Safra","street":"Piazza Edmond Jacob Safra","houseNumber":"","normalized":"piazza edmond jacob safra","lon":9.2082776,"lat":45.4881083},{"id":"way/23815386","kind":"street","name":"Piazza Edoardo Ferravilla","street":"Piazza Edoardo Ferravilla","houseNumber":"","normalized":"piazza edoardo ferravilla","lon":9.2232555,"lat":45.4714252},{"id":"way/23264051","kind":"street","name":"Piazza Eleonora Duse","street":"Piazza Eleonora Duse","houseNumber":"","normalized":"piazza eleonora duse","lon":9.2045681,"lat":45.471261},{"id":"way/31099345","kind":"street","name":"Piazza Emilia","street":"Piazza Emilia","houseNumber":"","normalized":"piazza emilia","lon":9.2172394,"lat":45.4622314},{"id":"way/96939120","kind":"street","name":"Piazza Emilio Alfieri","street":"Piazza Emilio Alfieri","houseNumber":"","normalized":"piazza emilio alfieri","lon":9.1607743,"lat":45.5032977},{"id":"way/11479217","kind":"street","name":"Piazza Emilio Salgari","street":"Piazza Emilio Salgari","houseNumber":"","normalized":"piazza emilio salgari","lon":9.2208389,"lat":45.450325},{"id":"way/328652091","kind":"street","name":"Piazza Enrico Berlinguer","street":"Piazza Enrico Berlinguer","houseNumber":"","normalized":"piazza enrico berlinguer","lon":9.1511947,"lat":45.4496988},{"id":"way/172812600","kind":"street","name":"Piazza Enrico Bottini","street":"Piazza Enrico Bottini","houseNumber":"","normalized":"piazza enrico bottini","lon":9.2366927,"lat":45.4848575},{"id":"way/30327206","kind":"street","name":"Piazza Enrico Chiaradia","street":"Piazza Enrico Chiaradia","houseNumber":"","normalized":"piazza enrico chiaradia","lon":9.1981768,"lat":45.4372361},{"id":"way/271417083","kind":"street","name":"Piazza Enzo Paci","street":"Piazza Enzo Paci","houseNumber":"","normalized":"piazza enzo paci","lon":9.1538286,"lat":45.4307797},{"id":"way/1029279433","kind":"street","name":"Piazza Ercole Luigi Morselli","street":"Piazza Ercole Luigi Morselli","houseNumber":"","normalized":"piazza ercole luigi morselli","lon":9.1750889,"lat":45.478822},{"id":"way/293871246","kind":"street","name":"Piazza Erculea","street":"Piazza Erculea","houseNumber":"","normalized":"piazza erculea","lon":9.1895191,"lat":45.4589698},{"id":"way/23817149","kind":"street","name":"Piazza Ermete Novelli","street":"Piazza Ermete Novelli","houseNumber":"","normalized":"piazza ermete novelli","lon":9.2193717,"lat":45.4712003},{"id":"way/4012153","kind":"street","name":"Piazza Ernesto De Angeli","street":"Piazza Ernesto De Angeli","houseNumber":"","normalized":"piazza ernesto de angeli","lon":9.1507679,"lat":45.4664658},{"id":"way/168900080","kind":"street","name":"Piazza Esquilino","street":"Piazza Esquilino","houseNumber":"","normalized":"piazza esquilino","lon":9.1327777,"lat":45.4752704},{"id":"way/10595719","kind":"street","name":"Piazza Federico Bonola","street":"Piazza Federico Bonola","houseNumber":"","normalized":"piazza federico bonola","lon":9.1072818,"lat":45.4977207},{"id":"way/13761101","kind":"street","name":"Piazza Federico Mistral","street":"Piazza Federico Mistral","houseNumber":"","normalized":"piazza federico mistral","lon":9.2357968,"lat":45.4348935},{"id":"way/1092348753","kind":"street","name":"Piazza Ferravilla","street":"Piazza Ferravilla","houseNumber":"","normalized":"piazza ferravilla","lon":9.2233888,"lat":45.4710553},{"id":"way/74877258","kind":"street","name":"Piazza Fidia","street":"Piazza Fidia","houseNumber":"","normalized":"piazza fidia","lon":9.1861216,"lat":45.4892653},{"id":"way/4868903","kind":"street","name":"Piazza Filippo Meda","street":"Piazza Filippo Meda","houseNumber":"","normalized":"piazza filippo meda","lon":9.192971,"lat":45.4667762},{"id":"way/4615528","kind":"street","name":"Piazza Firenze","street":"Piazza Firenze","houseNumber":"","normalized":"piazza firenze","lon":9.1569717,"lat":45.4877752},{"id":"way/908989380","kind":"street","name":"Piazza Fontana","street":"Piazza Fontana","houseNumber":"","normalized":"piazza fontana","lon":9.1938642,"lat":45.4635755},{"id":"way/42778567","kind":"street","name":"Piazza Francesco Carrara","street":"Piazza Francesco Carrara","houseNumber":"","normalized":"piazza francesco carrara","lon":9.1750634,"lat":45.4378437},{"id":"way/332911824","kind":"street","name":"Piazza Francesco Carvelli","street":"Piazza Francesco Carvelli","houseNumber":"","normalized":"piazza francesco carvelli","lon":9.1405044,"lat":45.5183432},{"id":"way/4861354","kind":"street","name":"Piazza Francesco Durante","street":"Piazza Francesco Durante","houseNumber":"","normalized":"piazza francesco durante","lon":9.2225266,"lat":45.4887299},{"id":"way/23194182","kind":"street","name":"Piazza Francesco Guardi","street":"Piazza Francesco Guardi","houseNumber":"","normalized":"piazza francesco guardi","lon":9.2270348,"lat":45.4703303},{"id":"way/384861226","kind":"street","name":"Piazza Franco Brambilla","street":"Piazza Franco Brambilla","houseNumber":"","normalized":"piazza franco brambilla","lon":9.2147438,"lat":45.5223573},{"id":"way/23396663","kind":"street","name":"Piazza Franco Martelli","street":"Piazza Franco Martelli","houseNumber":"","normalized":"piazza franco martelli","lon":9.2038022,"lat":45.5226288},{"id":"way/166616178","kind":"street","name":"Piazza Fratelli Bandiera","street":"Piazza Fratelli Bandiera","houseNumber":"","normalized":"piazza fratelli bandiera","lon":9.2106683,"lat":45.4707562},{"id":"way/1075791102","kind":"street","name":"Piazza Gae Aulenti","street":"Piazza Gae Aulenti","houseNumber":"","normalized":"piazza gae aulenti","lon":9.1913853,"lat":45.4831299},{"id":"way/25764547","kind":"street","name":"Piazza Gaetano Filangieri","street":"Piazza Gaetano Filangieri","houseNumber":"","normalized":"piazza gaetano filangieri","lon":9.1680731,"lat":45.4611255},{"id":"way/255067143","kind":"street","name":"Piazza Geremia Bonomelli","street":"Piazza Geremia Bonomelli","houseNumber":"","normalized":"piazza geremia bonomelli","lon":9.213645,"lat":45.4407144},{"id":"way/15281628","kind":"street","name":"Piazza Gerusalemme","street":"Piazza Gerusalemme","houseNumber":"","normalized":"piazza gerusalemme","lon":9.1671886,"lat":45.483989},{"id":"way/1080493592","kind":"street","name":"Piazza Ghirlandaio","street":"Piazza Ghirlandaio","houseNumber":"","normalized":"piazza ghirlandaio","lon":9.1452769,"lat":45.4669684},{"id":"way/4824791","kind":"street","name":"Piazza Gian Antonio Maggi","street":"Piazza Gian Antonio Maggi","houseNumber":"","normalized":"piazza gian antonio maggi","lon":9.1711954,"lat":45.4379084},{"id":"way/160136159","kind":"street","name":"Piazza Gian Lorenzo Bernini","street":"Piazza Gian Lorenzo Bernini","houseNumber":"","normalized":"piazza gian lorenzo bernini","lon":9.22116,"lat":45.4789979},{"id":"way/862864598","kind":"street","name":"Piazza Gino Valle","street":"Piazza Gino Valle","houseNumber":"","normalized":"piazza gino valle","lon":9.1477683,"lat":45.4858443},{"id":"way/23253062","kind":"street","name":"Piazza Gio Ponti","street":"Piazza Gio Ponti","houseNumber":"","normalized":"piazza gio ponti","lon":9.1499606,"lat":45.4410644},{"id":"way/4494830","kind":"street","name":"Piazza Giorgio Ambrosoli","street":"Piazza Giorgio Ambrosoli","houseNumber":"","normalized":"piazza giorgio ambrosoli","lon":9.161124,"lat":45.4639976},{"id":"way/1495677501","kind":"street","name":"Piazza Giorgio Ceruti","street":"Piazza Giorgio Ceruti","houseNumber":"","normalized":"piazza giorgio ceruti","lon":9.1443968,"lat":45.4776723},{"id":"way/4011897","kind":"street","name":"Piazza Giorgio Simone Ohm","street":"Piazza Giorgio Simone Ohm","houseNumber":"","normalized":"piazza giorgio simone ohm","lon":9.1477252,"lat":45.443078},{"id":"way/59235806","kind":"street","name":"Piazza Giosia Monti","street":"Piazza Giosia Monti","houseNumber":"","normalized":"piazza giosia monti","lon":9.0887443,"lat":45.4755456},{"id":"way/4012110","kind":"street","name":"Piazza Giovanni Amendola","street":"Piazza Giovanni Amendola","houseNumber":"","normalized":"piazza giovanni amendola","lon":9.1513714,"lat":45.4743485},{"id":"way/4521011","kind":"street","name":"Piazza Giovanni Antonio Bazzi","street":"Piazza Giovanni Antonio Bazzi","houseNumber":"","normalized":"piazza giovanni antonio bazzi","lon":9.1622263,"lat":45.45698},{"id":"way/133961931","kind":"street","name":"Piazza Giovanni Bausan","street":"Piazza Giovanni Bausan","houseNumber":"","normalized":"piazza giovanni bausan","lon":9.1654607,"lat":45.5021147},{"id":"way/24012120","kind":"street","name":"Piazza Giovanni Giolitti","street":"Piazza Giovanni Giolitti","houseNumber":"","normalized":"piazza giovanni giolitti","lon":9.2250516,"lat":45.4751301},{"id":"way/10502108","kind":"street","name":"Piazza Giovanni Perego","street":"Piazza Giovanni Perego","houseNumber":"","normalized":"piazza giovanni perego","lon":9.1693747,"lat":45.4894792},{"id":"way/585507419","kind":"street","name":"Piazza Giovanni Pesce","street":"Piazza Giovanni Pesce","houseNumber":"","normalized":"piazza giovanni pesce","lon":9.1033358,"lat":45.5061071},{"id":"way/285272399","kind":"street","name":"Piazza Giovanni Ventitreesimo","street":"Piazza Giovanni Ventitreesimo","houseNumber":"","normalized":"piazza giovanni ventitreesimo","lon":9.1649244,"lat":45.4757658},{"id":"way/285272411","kind":"street","name":"Piazza Giovanni XXIII","street":"Piazza Giovanni XXIII","houseNumber":"","normalized":"piazza giovanni xxiii","lon":9.1649967,"lat":45.4759815},{"id":"way/4519595","kind":"street","name":"Piazza Giovine Italia","street":"Piazza Giovine Italia","houseNumber":"","normalized":"piazza giovine italia","lon":9.1690283,"lat":45.4673885},{"id":"way/25092299","kind":"street","name":"Piazza Giuseppe Grandi","street":"Piazza Giuseppe Grandi","houseNumber":"","normalized":"piazza giuseppe grandi","lon":9.2212051,"lat":45.4616544},{"id":"way/23084025","kind":"street","name":"Piazza Giuseppe Missori","street":"Piazza Giuseppe Missori","houseNumber":"","normalized":"piazza giuseppe missori","lon":9.1878374,"lat":45.4612695},{"id":"way/261217920","kind":"street","name":"Piazza Giuseppe Occhialini","street":"Piazza Giuseppe Occhialini","houseNumber":"","normalized":"piazza giuseppe occhialini","lon":9.2267648,"lat":45.4735508},{"id":"way/47431540","kind":"street","name":"Piazza Giuseppe Pasolini","street":"Piazza Giuseppe Pasolini","houseNumber":"","normalized":"piazza giuseppe pasolini","lon":9.1862621,"lat":45.4962183},{"id":"way/25213657","kind":"street","name":"Piazza Giustino Fortunato","street":"Piazza Giustino Fortunato","houseNumber":"","normalized":"piazza giustino fortunato","lon":9.1755157,"lat":45.5234736},{"id":"way/1092642608","kind":"street","name":"Piazza Gobetti","street":"Piazza Gobetti","houseNumber":"","normalized":"piazza gobetti","lon":9.2332183,"lat":45.4858091},{"id":"way/1080275020","kind":"street","name":"Piazza Gramsci","street":"Piazza Gramsci","houseNumber":"","normalized":"piazza gramsci","lon":9.1677934,"lat":45.4816706},{"id":"way/23451425","kind":"street","name":"Piazza Gran Paradiso","street":"Piazza Gran Paradiso","houseNumber":"","normalized":"piazza gran paradiso","lon":9.1937159,"lat":45.5175497},{"id":"way/301958437","kind":"street","name":"Piazza Grandi","street":"Piazza Grandi","houseNumber":"","normalized":"piazza grandi","lon":9.2209073,"lat":45.4621508},{"id":"way/23820110","kind":"street","name":"Piazza Graziadio Isaia Ascoli","street":"Piazza Graziadio Isaia Ascoli","houseNumber":"","normalized":"piazza graziadio isaia ascoli","lon":9.2172974,"lat":45.4732079},{"id":"way/340440847","kind":"street","name":"Piazza Greco","street":"Piazza Greco","houseNumber":"","normalized":"piazza greco","lon":9.2116856,"lat":45.5022517},{"id":"way/4520048","kind":"street","name":"Piazza Guglielmo Massaia","street":"Piazza Guglielmo Massaia","houseNumber":"","normalized":"piazza guglielmo massaia","lon":9.1815698,"lat":45.4616135},{"id":"way/7980889","kind":"street","name":"Piazza Guglielmo Miani","street":"Piazza Guglielmo Miani","houseNumber":"","normalized":"piazza guglielmo miani","lon":9.1545909,"lat":45.4377718},{"id":"way/385968578","kind":"street","name":"Piazza Guglielmo Oberdan","street":"Piazza Guglielmo Oberdan","houseNumber":"","normalized":"piazza guglielmo oberdan","lon":9.2049023,"lat":45.4750545},{"id":"way/36873489","kind":"street","name":"Piazza Imperatore Tito","street":"Piazza Imperatore Tito","houseNumber":"","normalized":"piazza imperatore tito","lon":9.2185302,"lat":45.4543279},{"id":"way/36905701","kind":"street","name":"Piazza Insubria","street":"Piazza Insubria","houseNumber":"","normalized":"piazza insubria","lon":9.2213924,"lat":45.4531724},{"id":"way/50576175","kind":"street","name":"Piazza John Fitzgerald Kennedy","street":"Piazza John Fitzgerald Kennedy","houseNumber":"","normalized":"piazza john fitzgerald kennedy","lon":9.1308619,"lat":45.495158},{"id":"way/40286039","kind":"street","name":"Piazza Lega Lombarda","street":"Piazza Lega Lombarda","houseNumber":"","normalized":"piazza lega lombarda","lon":9.1798623,"lat":45.4777323},{"id":"way/7980384","kind":"street","name":"Piazza Leonardo da Vinci","street":"Piazza Leonardo da Vinci","houseNumber":"","normalized":"piazza leonardo da vinci","lon":9.2263193,"lat":45.476895},{"id":"way/1092624667","kind":"street","name":"Piazza Leonardo Da Vinci - Politecnico","street":"Piazza Leonardo Da Vinci - Politecnico","houseNumber":"","normalized":"piazza leonardo da vinci politecnico","lon":9.2267963,"lat":45.4793286},{"id":"way/206505867","kind":"street","name":"Piazza Lima","street":"Piazza Lima","houseNumber":"","normalized":"piazza lima","lon":9.2112213,"lat":45.4802188},{"id":"way/254802974","kind":"street","name":"Piazza Lina Bo Bardi","street":"Piazza Lina Bo Bardi","houseNumber":"","normalized":"piazza lina bo bardi","lon":9.1970685,"lat":45.4808613},{"id":"way/7980687","kind":"street","name":"Piazza Lionello Bettini","street":"Piazza Lionello Bettini","houseNumber":"","normalized":"piazza lionello bettini","lon":9.1328916,"lat":45.4628482},{"id":"way/10519182","kind":"street","name":"Piazza Luigi di Savoia","street":"Piazza Luigi di Savoia","houseNumber":"","normalized":"piazza luigi di savoia","lon":9.2078762,"lat":45.4863408},{"id":"way/95526627","kind":"street","name":"Piazza Luigi Einaudi","street":"Piazza Luigi Einaudi","houseNumber":"","normalized":"piazza luigi einaudi","lon":9.1953679,"lat":45.4838384},{"id":"way/43015637","kind":"street","name":"Piazza Luigi Vittorio Bertarelli","street":"Piazza Luigi Vittorio Bertarelli","houseNumber":"","normalized":"piazza luigi vittorio bertarelli","lon":9.1874887,"lat":45.4584133},{"id":"way/275002126","kind":"street","name":"Piazza Madonna dei Poveri","street":"Piazza Madonna dei Poveri","houseNumber":"","normalized":"piazza madonna dei poveri","lon":9.1130218,"lat":45.4621518},{"id":"way/375442883","kind":"street","name":"Piazza Madonna della Provvidenza","street":"Piazza Madonna della Provvidenza","houseNumber":"","normalized":"piazza madonna della provvidenza","lon":9.0890406,"lat":45.4766361},{"id":"way/288813879","kind":"street","name":"Piazza Maggi","street":"Piazza Maggi","houseNumber":"","normalized":"piazza maggi","lon":9.170844,"lat":45.4379686},{"id":"way/7980210","kind":"street","name":"Piazza Maria Adelaide di Savoia","street":"Piazza Maria Adelaide di Savoia","houseNumber":"","normalized":"piazza maria adelaide di savoia","lon":9.2148792,"lat":45.4730764},{"id":"way/23023078","kind":"street","name":"Piazza Melozzo da Forlì","street":"Piazza Melozzo da Forlì","houseNumber":"","normalized":"piazza melozzo da forli","lon":9.1312751,"lat":45.468014},{"id":"way/1303113720","kind":"street","name":"Piazza Mentana","street":"Piazza Mentana","houseNumber":"","normalized":"piazza mentana","lon":9.1818056,"lat":45.461831},{"id":"way/1209734635","kind":"street","name":"Piazza Miani","street":"Piazza Miani","houseNumber":"","normalized":"piazza miani","lon":9.155305,"lat":45.4382021},{"id":"way/4011850","kind":"street","name":"Piazza Michelangelo Buonarroti","street":"Piazza Michelangelo Buonarroti","houseNumber":"","normalized":"piazza michelangelo buonarroti","lon":9.1556747,"lat":45.4698155},{"id":"way/33436035","kind":"street","name":"Piazza Michele Cappelli","street":"Piazza Michele Cappelli","houseNumber":"","normalized":"piazza michele cappelli","lon":9.2168757,"lat":45.4584224},{"id":"way/23947545","kind":"street","name":"Piazza Monte Falterona","street":"Piazza Monte Falterona","houseNumber":"","normalized":"piazza monte falterona","lon":9.140496,"lat":45.4741081},{"id":"way/15374928","kind":"street","name":"Piazza Monte Titano","street":"Piazza Monte Titano","houseNumber":"","normalized":"piazza monte titano","lon":9.238016,"lat":45.4860545},{"id":"way/4861336","kind":"street","name":"Piazza Morbegno","street":"Piazza Morbegno","houseNumber":"","normalized":"piazza morbegno","lon":9.216519,"lat":45.4930441},{"id":"way/4011844","kind":"street","name":"Piazza Napoli","street":"Piazza Napoli","houseNumber":"","normalized":"piazza napoli","lon":9.1540046,"lat":45.4531003},{"id":"way/612856653","kind":"street","name":"Piazza Negrelli","street":"Piazza Negrelli","houseNumber":"","normalized":"piazza negrelli","lon":9.1394115,"lat":45.4432959},{"id":"way/28734907","kind":"street","name":"Piazza Niccolò Tommaseo","street":"Piazza Niccolò Tommaseo","houseNumber":"","normalized":"piazza niccolo tommaseo","lon":9.1665651,"lat":45.469555},{"id":"way/103169097","kind":"street","name":"Piazza Ospedale Maggiore","street":"Piazza Ospedale Maggiore","houseNumber":"","normalized":"piazza ospedale maggiore","lon":9.1879005,"lat":45.5104706},{"id":"way/23301292","kind":"street","name":"Piazza Otto Novembre","street":"Piazza Otto Novembre","houseNumber":"","normalized":"piazza otto novembre","lon":9.2104899,"lat":45.4746055},{"id":"way/171951779","kind":"street","name":"Piazza Ovidio","street":"Piazza Ovidio","houseNumber":"","normalized":"piazza ovidio","lon":9.2415995,"lat":45.4569423},{"id":"way/23227361","kind":"street","name":"Piazza Paolo Ferrari","street":"Piazza Paolo Ferrari","houseNumber":"","normalized":"piazza paolo ferrari","lon":9.1887864,"lat":45.4670128},{"id":"way/23331620","kind":"street","name":"Piazza Paolo Sesto","street":"Piazza Paolo Sesto","houseNumber":"","normalized":"piazza paolo sesto","lon":9.1845026,"lat":45.4733775},{"id":"way/285272385","kind":"street","name":"Piazza Papa Giovanni Ventitreesimo","street":"Piazza Papa Giovanni Ventitreesimo","houseNumber":"","normalized":"piazza papa giovanni ventitreesimo","lon":9.1651193,"lat":45.4761833},{"id":"way/4011856","kind":"street","name":"Piazza Piemonte","street":"Piazza Piemonte","houseNumber":"","normalized":"piazza piemonte","lon":9.1548331,"lat":45.4669167},{"id":"way/1466222825","kind":"street","name":"Piazza Pietro Frattini","street":"Piazza Pietro Frattini","houseNumber":"","normalized":"piazza pietro frattini","lon":9.1431789,"lat":45.4517137},{"id":"way/162427360","kind":"street","name":"Piazza Pietro Gobetti","street":"Piazza Pietro Gobetti","houseNumber":"","normalized":"piazza pietro gobetti","lon":9.2334165,"lat":45.4860386},{"id":"way/7980551","kind":"street","name":"Piazza Pio Undicesimo","street":"Piazza Pio Undicesimo","houseNumber":"","normalized":"piazza pio undicesimo","lon":9.1859692,"lat":45.4637936},{"id":"way/4011903","kind":"street","name":"Piazza Po","street":"Piazza Po","houseNumber":"","normalized":"piazza po","lon":9.1585865,"lat":45.4616979},{"id":"way/4857267","kind":"street","name":"Piazza Pompeo Castelli","street":"Piazza Pompeo Castelli","houseNumber":"","normalized":"piazza pompeo castelli","lon":9.15114,"lat":45.4993875},{"id":"way/23634780","kind":"street","name":"Piazza Prealpi","street":"Piazza Prealpi","houseNumber":"","normalized":"piazza prealpi","lon":9.1526764,"lat":45.4943919},{"id":"way/37143313","kind":"street","name":"Piazza Precotto","street":"Piazza Precotto","houseNumber":"","normalized":"piazza precotto","lon":9.2246136,"lat":45.5124162},{"id":"way/147059276","kind":"street","name":"Piazza Quattro Novembre","street":"Piazza Quattro Novembre","houseNumber":"","normalized":"piazza quattro novembre","lon":9.201792,"lat":45.4866317},{"id":"way/82857354","kind":"street","name":"Piazza Remo Cantoni","street":"Piazza Remo Cantoni","houseNumber":"","normalized":"piazza remo cantoni","lon":9.1794186,"lat":45.4180308},{"id":"way/4497307","kind":"street","name":"Piazza Riccardo Wagner","street":"Piazza Riccardo Wagner","houseNumber":"","normalized":"piazza riccardo wagner","lon":9.1556272,"lat":45.4686279},{"id":"way/28775308","kind":"street","name":"Piazza Risorgimento","street":"Piazza Risorgimento","houseNumber":"","normalized":"piazza risorgimento","lon":9.2106808,"lat":45.4683476},{"id":"way/23100341","kind":"street","name":"Piazza Rosa Scolari","street":"Piazza Rosa Scolari","houseNumber":"","normalized":"piazza rosa scolari","lon":9.1008858,"lat":45.4908421},{"id":"way/401248527","kind":"street","name":"Piazza Salgari","street":"Piazza Salgari","houseNumber":"","normalized":"piazza salgari","lon":9.2201141,"lat":45.4504116},{"id":"way/310931330","kind":"street","name":"Piazza Salvatore Quasimodo","street":"Piazza Salvatore Quasimodo","houseNumber":"","normalized":"piazza salvatore quasimodo","lon":9.1843069,"lat":45.4586756},{"id":"way/23227576","kind":"street","name":"Piazza San Babila","street":"Piazza San Babila","houseNumber":"","normalized":"piazza san babila","lon":9.1972317,"lat":45.4661373},{"id":"way/23249295","kind":"street","name":"Piazza San Camillo de Lellis","street":"Piazza San Camillo de Lellis","houseNumber":"","normalized":"piazza san camillo de lellis","lon":9.2033938,"lat":45.4823026},{"id":"way/23227671","kind":"street","name":"Piazza San Carlo","street":"Piazza San Carlo","houseNumber":"","normalized":"piazza san carlo","lon":9.1964532,"lat":45.4659482},{"id":"way/547832991","kind":"street","name":"Piazza San Fedele","street":"Piazza San Fedele","houseNumber":"","normalized":"piazza san fedele","lon":9.1909812,"lat":45.4663948},{"id":"way/25141623","kind":"street","name":"Piazza San Gerolamo","street":"Piazza San Gerolamo","houseNumber":"","normalized":"piazza san gerolamo","lon":9.2377585,"lat":45.4696826},{"id":"way/28683787","kind":"street","name":"Piazza San Gioachimo","street":"Piazza San Gioachimo","houseNumber":"","normalized":"piazza san gioachimo","lon":9.1976692,"lat":45.481499},{"id":"way/172323224","kind":"street","name":"Piazza San Giorgio","street":"Piazza San Giorgio","houseNumber":"","normalized":"piazza san giorgio","lon":9.1836574,"lat":45.4610474},{"id":"way/23100348","kind":"street","name":"Piazza San Giovanni","street":"Piazza San Giovanni","houseNumber":"","normalized":"piazza san giovanni","lon":9.0995611,"lat":45.4907949},{"id":"way/263984412","kind":"street","name":"Piazza San Giovanni Battista alla Creta","street":"Piazza San Giovanni Battista alla Creta","houseNumber":"","normalized":"piazza san giovanni battista alla creta","lon":9.1215469,"lat":45.4553807},{"id":"way/23396565","kind":"street","name":"Piazza San Giuseppe","street":"Piazza San Giuseppe","houseNumber":"","normalized":"piazza san giuseppe","lon":9.2060643,"lat":45.526728},{"id":"way/264835815","kind":"street","name":"Piazza San Luigi","street":"Piazza San Luigi","houseNumber":"","normalized":"piazza san luigi","lon":9.2139874,"lat":45.444048},{"id":"way/26613778","kind":"street","name":"Piazza San Marco","street":"Piazza San Marco","houseNumber":"","normalized":"piazza san marco","lon":9.1882391,"lat":45.4732115},{"id":"way/1036977296","kind":"street","name":"Piazza San Materno","street":"Piazza San Materno","houseNumber":"","normalized":"piazza san materno","lon":9.2265691,"lat":45.4888671},{"id":"way/24971163","kind":"street","name":"Piazza San Nazaro in Brolo","street":"Piazza San Nazaro in Brolo","houseNumber":"","normalized":"piazza san nazaro in brolo","lon":9.1925761,"lat":45.4583535},{"id":"way/27624951","kind":"street","name":"Piazza San Pietro in Gessate","street":"Piazza San Pietro in Gessate","houseNumber":"","normalized":"piazza san pietro in gessate","lon":9.2015283,"lat":45.4626665},{"id":"way/120458053","kind":"street","name":"Piazza San Sepolcro","street":"Piazza San Sepolcro","houseNumber":"","normalized":"piazza san sepolcro","lon":9.1847944,"lat":45.4630006},{"id":"way/38000392","kind":"street","name":"Piazza San Simpliciano","street":"Piazza San Simpliciano","houseNumber":"","normalized":"piazza san simpliciano","lon":9.184096,"lat":45.4737246},{"id":"way/44158120","kind":"street","name":"Piazza Sandro Pertini","street":"Piazza Sandro Pertini","houseNumber":"","normalized":"piazza sandro pertini","lon":9.0699895,"lat":45.4574811},